{
  "000990ec-10e3-42ef-9db3-d1b4aba61bee": {
    "name": "微風南京-Hoi!好好生活",
    "district": "松山區",
    "address": "臺北市松山區南京東路三段337號1至4樓及地下1，2樓",
    "earlyBird": null,
    "lat": 25.0520316,
    "lng": 121.5481058
  },
  "000ceef7-7cf2-4829-9d0e-e0ea09d05e11": {
    "name": "京站-SAVVY",
    "district": "大同區",
    "address": "台北市大同區承德路一段一號",
    "earlyBird": null,
    "lat": 25.0504459,
    "lng": 121.5170168
  },
  "001211a0-744f-4115-a0f1-671edc466e92": {
    "name": "遠東SOGO復興館-DEVIN",
    "district": "大安區",
    "address": "臺北市大安區忠孝東路3段300號7F",
    "earlyBird": null,
    "lat": 25.0410553,
    "lng": 121.5431553
  },
  "0015534f-f870-4118-86cd-8a59ce7c019a": {
    "name": "艋舺慶",
    "district": "萬華區",
    "address": "臺北市萬華區富福里和平西路３段１２０號１樓２０號",
    "earlyBird": true,
    "lat": 25.0350986,
    "lng": 121.499523
  },
  "0016add6-06d5-48d6-ae8e-aad112f23fa0": {
    "name": "ATT 4 FUN 信義店-天仁茗茶",
    "district": "信義區",
    "address": "臺北市信義區松壽路12號",
    "earlyBird": null,
    "lat": 25.0353886,
    "lng": 121.5660759
  },
  "001ea22d-dd03-4d45-8053-8366ea54d281": {
    "name": "新光三越A8-樺丰",
    "district": "信義區",
    "address": "臺北市信義區松高路12號",
    "earlyBird": null,
    "lat": 25.0382241,
    "lng": 121.5667909
  },
  "00208245-ba1c-4d96-af8b-985602009424": {
    "name": "凱菲屋",
    "district": "信義區",
    "address": "臺北市信義區松壽路二號",
    "earlyBird": true,
    "lat": 25.0358774,
    "lng": 121.5647399
  },
  "002919e0-0df4-4ba2-97b7-4577110de96f": {
    "name": "寶島眼鏡長安東路分公司",
    "district": "中山區",
    "address": "臺北市中山區長安東路2段189-2號1樓",
    "earlyBird": null,
    "lat": 25.0484076,
    "lng": 121.5429385
  },
  "002ae633-c23e-42ca-8c80-3fc66ab0a1a3": {
    "name": "新光三越A9-TIFFANY-蒂芙尼國際",
    "district": "信義區",
    "address": "臺北市信義區西村里松壽路９號",
    "earlyBird": null,
    "lat": 25.0363104,
    "lng": 121.5668588
  },
  "002b6927-784f-4ce7-ac47-1657de493128": {
    "name": "爭鮮股份有限公司天母分公司",
    "district": "士林區",
    "address": "臺北市士林區蘭興里德行西路４７號１樓",
    "earlyBird": false,
    "lat": 25.105749,
    "lng": 121.52274
  },
  "00347e0c-bdaf-4751-b571-d2c24bb2e5c5": {
    "name": "微風松高-海壽司",
    "district": "信義區",
    "address": "臺北市信義區松高路16號1-4樓及地下1-5樓",
    "earlyBird": null,
    "lat": 25.0387076,
    "lng": 121.56729
  },
  "003bc15b-a86c-459a-8aef-fd0f64894e9f": {
    "name": "遠百台北寶慶店-金錡",
    "district": "中正區",
    "address": "臺北市中正區寶慶路32號7F",
    "earlyBird": null,
    "lat": 25.0414461,
    "lng": 121.5090757
  },
  "003d12a7-bbf8-4089-ba25-c909f8967dd9": {
    "name": "舞中閣 Alive Dance Space",
    "district": "中山區",
    "address": "臺北市中山區農安街77巷9弄18號",
    "earlyBird": false,
    "lat": 25.0661605,
    "lng": 121.5289818
  },
  "003d564a-6e95-44f0-9851-660ef3bbbd9d": {
    "name": "遠百信義A13-ELLESSE",
    "district": "信義區",
    "address": "臺北市信義區松仁路58號6樓",
    "earlyBird": null,
    "lat": 25.0367849,
    "lng": 121.5679566
  },
  "004c3a2f-f37f-4b6a-9173-05bb9a5a0a5c": {
    "name": "新葡苑內湖店",
    "district": "內湖區",
    "address": "臺北市內湖區成功路四段188號2樓",
    "earlyBird": false,
    "lat": 25.0839162,
    "lng": 121.5943353
  },
  "004c5ec5-e76b-43d4-a069-9daef7bc7306": {
    "name": "運博國際股份有限公司建國路前山營業所",
    "district": "北投區",
    "address": "臺北市北投區湖山里建國街４號",
    "earlyBird": false,
    "lat": 25.151522,
    "lng": 121.548566
  },
  "004ccb2b-7aa4-4f0f-bfb6-5737deaca6fd": {
    "name": "ATT e Life 大直店_愛趣屋",
    "district": "中山區",
    "address": "臺北市中山區敬業三路123號2樓",
    "earlyBird": null,
    "lat": 25.0812115,
    "lng": 121.5557198
  },
  "005cd364-0884-44e2-9a85-bfc85cf5b263": {
    "name": "寶島眼鏡葫洲圓環分公司",
    "district": "內湖區",
    "address": "臺北市內湖區民權東路六段302號",
    "earlyBird": null,
    "lat": 25.0727607,
    "lng": 121.6057044
  },
  "005d6a8d-9fee-4cdb-bd2a-3c5af8c301c2": {
    "name": "新光三越A11-THE NORTH FACE UE",
    "district": "信義區",
    "address": "臺北市信義區松壽路１１號",
    "earlyBird": null,
    "lat": 25.0367103,
    "lng": 121.5672369
  },
  "007a487a-b816-4604-b8d9-784acc0d10b5": {
    "name": "新光三越A11-MONE",
    "district": "信義區",
    "address": "臺北市信義區松壽路１１號",
    "earlyBird": null,
    "lat": 25.0367103,
    "lng": 121.5672369
  },
  "00850a09-c17c-4acf-af79-21c456849350": {
    "name": "遠百台北寶慶店-SKⅡ                          ",
    "district": "中正區",
    "address": "臺北市中正區寶慶路32號1F ",
    "earlyBird": null,
    "lat": 25.0414461,
    "lng": 121.5090757
  },
  "008c9c58-a548-4447-a5bd-e65d1eba20bd": {
    "name": "遠百信義A13-CREED",
    "district": "信義區",
    "address": "臺北市信義區松仁路58號2樓",
    "earlyBird": null,
    "lat": 25.0367287,
    "lng": 121.5681294
  },
  "0096a43d-b319-4559-a4d0-db068b2077e8": {
    "name": "穀果廚房 Gugo Kitchen",
    "district": "大安區",
    "address": "臺北市大安區羅斯福路四段1號社會科學院",
    "earlyBird": true,
    "lat": 25.0145185,
    "lng": 121.53792
  },
  "009a7679-5586-4b66-a510-4dc8772dcfaf": {
    "name": "大葉高島屋-巴黎十五",
    "district": "士林區",
    "address": "臺北市士林區忠誠路二段55號",
    "earlyBird": null,
    "lat": 25.1118523,
    "lng": 121.5314695
  },
  "00be081a-4236-4e91-932f-9f2d20fef56e": {
    "name": "麗晶精品-Coquology",
    "district": "中山區",
    "address": "臺北市中山區中山北路二段39巷3號",
    "earlyBird": false,
    "lat": 25.0541575,
    "lng": 121.5242879
  },
  "00c0f424-7414-4eca-901c-3e4e454b4a0c": {
    "name": "羽仝茶侶有限公司",
    "district": "大同區",
    "address": "臺北市大同區朝陽里重慶北路二段６４巷２４號",
    "earlyBird": true,
    "lat": 25.0557137,
    "lng": 121.5131209
  },
  "00dd68f3-f69a-4374-aafd-0004285f7b15": {
    "name": "俱坊家具行",
    "district": "中正區",
    "address": "臺北市中正區南福里南昌路２段６７號",
    "earlyBird": true,
    "lat": 25.02745,
    "lng": 121.520524
  },
  "00df8b84-a909-44b2-a3d1-ce1ea2a5d144": {
    "name": "麥當勞台北石牌",
    "district": "北投區",
    "address": "臺北市北投區石牌路2段126號",
    "earlyBird": false,
    "lat": 25.1178786,
    "lng": 121.5173817
  },
  "00e5446e-aff1-4e27-bb91-9215bca181b9": {
    "name": "50嵐實踐綠茶店",
    "district": "中山區",
    "address": "臺北市中山區大直里大直街５１號１樓",
    "earlyBird": false,
    "lat": 25.083095,
    "lng": 121.5464509
  },
  "00e7a2c7-193e-4c03-94c6-4225d156357c": {
    "name": "巨擘書局有限公司",
    "district": "中正區",
    "address": "臺北市中正區懷寧街36號2樓",
    "earlyBird": false,
    "lat": 25.0449072,
    "lng": 121.5140596
  },
  "00f46dd4-b9f3-4976-8cae-3934e5f9db43": {
    "name": "遠東SOGO天母館-GD SHOP",
    "district": "士林區",
    "address": "臺北市士林區中山北路6段77號(2F)",
    "earlyBird": null,
    "lat": 25.105306,
    "lng": 121.5245943
  },
  "00faff64-66e0-49c7-b038-c74cf34e5370": {
    "name": "東門豆漿店",
    "district": "中正區",
    "address": "臺北市中正區三愛里臨沂街７５巷１４號",
    "earlyBird": true,
    "lat": 25.0345533,
    "lng": 121.5295303
  },
  "00fd430d-53ea-4b83-85bf-ea42da2acda6": {
    "name": "聖德科斯生機食品-政大門市",
    "district": "文山區",
    "address": "臺北市文山區臺北市文山區萬興里萬壽路23號",
    "earlyBird": null,
    "lat": 24.988258,
    "lng": 121.5761234
  },
  "01096a13-6214-4f3d-a17a-1d2bde9cb0b3": {
    "name": "乙巧電器視聽有限公司",
    "district": "大同區",
    "address": "臺北市大同區民權里蘭州街４號１樓",
    "earlyBird": true,
    "lat": 25.0619498,
    "lng": 121.5138893
  },
  "01175924-95d0-4fc0-807a-11146d8af510": {
    "name": "遠東SOGO復興館-ALLSAINTS",
    "district": "大安區",
    "address": "臺北市大安區忠孝東路3段300號4F",
    "earlyBird": null,
    "lat": 25.0410133,
    "lng": 121.5433337
  },
  "0123191c-c3c3-4d3f-b499-99882c12e573": {
    "name": "大葉高島屋-金錡",
    "district": "士林區",
    "address": "臺北市士林區忠誠路二段55號",
    "earlyBird": null,
    "lat": 25.1118523,
    "lng": 121.5314695
  },
  "01282cce-6fbe-43d1-8495-ed11f680e100": {
    "name": "三民書局重南店",
    "district": "中正區",
    "address": "臺北市中正區重慶南路一段６１號",
    "earlyBird": null,
    "lat": 25.044526,
    "lng": 121.513378
  },
  "012d21d6-92cf-4525-b9ec-0be37608803f": {
    "name": "新光三越A11-IN THE PLAYGROUND",
    "district": "信義區",
    "address": "臺北市信義區松壽路１１號",
    "earlyBird": null,
    "lat": 25.0367103,
    "lng": 121.5672369
  },
  "013717c1-3184-4a1c-b2c2-bd042cc5066f": {
    "name": "微風廣場店-小銅板牛排",
    "district": "松山區",
    "address": "臺北市松山區復興南路一段39號",
    "earlyBird": null,
    "lat": 25.0461572,
    "lng": 121.5448303
  },
  "013c06e5-f927-4027-badd-8989d1a2192b": {
    "name": "達康醫療器材-開水實業有限公司",
    "district": "北投區",
    "address": "臺北市北投區振興街１９號１樓",
    "earlyBird": true,
    "lat": 25.1182478,
    "lng": 121.5222484
  },
  "014243f2-fd2c-488c-b1e2-64ff8b8c1906": {
    "name": "萬利食品店",
    "district": "內湖區",
    "address": "臺北市內湖區港富里內湖路１段７３７巷３４號１樓",
    "earlyBird": true,
    "lat": 25.0789552,
    "lng": 121.5782819
  },
  "0149d3d4-9b45-4e29-b0b2-f1609c026bbe": {
    "name": "遠見天下文化出版(股)公司",
    "district": "中山區",
    "address": "臺北市中山區松江路９３巷１號1樓",
    "earlyBird": null,
    "lat": 25.0507372,
    "lng": 121.5336324
  },
  "014af849-af4c-4347-be82-f41f15dea5c4": {
    "name": "京站-Timberland",
    "district": "大同區",
    "address": "台北市大同區承德路一段一號",
    "earlyBird": null,
    "lat": 25.0504459,
    "lng": 121.5170168
  },
  "015b32bd-4ca2-4e7c-a001-8da783afaa7a": {
    "name": "大葉高島屋-K-SWISS",
    "district": "士林區",
    "address": "臺北市士林區忠誠路二段55號",
    "earlyBird": null,
    "lat": 25.1118523,
    "lng": 121.5314695
  },
  "015c6e8b-1a88-48a4-80cc-f511c0ccf48b": {
    "name": "USTINI我挺你健康鞋王朝櫃",
    "district": "松山區",
    "address": "臺北市松山區中正里敦化北路100號B1",
    "earlyBird": false,
    "lat": 25.0523798,
    "lng": 121.5484741
  },
  "017d75f3-dd94-4e09-bd08-71cd20622d50": {
    "name": "台灣薩莉亞餐飲股份有限公司台北館前分公司",
    "district": "中正區",
    "address": "臺北市中正區黎明里館前路６號３樓",
    "earlyBird": false,
    "lat": 25.046138,
    "lng": 121.514762
  },
  "01831e22-b0ad-4dad-8469-471ee319e5f3": {
    "name": "Curves忠孝敦化店",
    "district": "大安區",
    "address": "臺北市大安區忠孝東路4段250號2樓之3",
    "earlyBird": false,
    "lat": 25.041203,
    "lng": 121.554191
  },
  "018a2cef-6b7e-4a21-8181-ca7a5be96233": {
    "name": "有明心ＧrassＭountainCoffee",
    "district": "士林區",
    "address": "臺北市士林區格致路３8號",
    "earlyBird": true,
    "lat": 25.137259,
    "lng": 121.546569
  },
  "018a90d5-20af-4b48-bd48-c015d67ce10c": {
    "name": "遠東SOGO天母店1F-4號綜合收銀台",
    "district": "士林區",
    "address": "臺北市士林區中山北路6段77號(1F)",
    "earlyBird": null,
    "lat": 25.105306,
    "lng": 121.5245943
  },
  "019cac0d-a989-4a22-a101-236978484d3a": {
    "name": "藤香厚工豆花",
    "district": "文山區",
    "address": "臺北市文山區順興里木新路二段２０８號",
    "earlyBird": true,
    "lat": 24.9837396,
    "lng": 121.567693
  },
  "019df6b9-46a4-48a4-84d4-58d0fe74bf1d": {
    "name": "ATT 4 FUN 信義店-饗食天堂",
    "district": "信義區",
    "address": "臺北市信義區松壽路12號",
    "earlyBird": null,
    "lat": 25.0353886,
    "lng": 121.5660759
  },
  "01aa02b9-774a-46fe-a069-4713aadc25c2": {
    "name": "時代百貨-SWAROVSKI-2420",
    "district": "信義區",
    "address": "臺北市信義區忠孝東路5段8號2樓",
    "earlyBird": null,
    "lat": 25.0406227,
    "lng": 121.5654586
  },
  "01b015ee-0746-41d1-b49b-c643295b4c6d": {
    "name": "金玉堂批發廣場葫洲店",
    "district": "內湖區",
    "address": "臺北市內湖區葫洲里民權東路６段２９６巷２０號２樓",
    "earlyBird": null,
    "lat": 25.0723353,
    "lng": 121.6059503
  },
  "01b260aa-fff1-4ec4-8312-86595b27ec7e": {
    "name": "遠東SOGO忠孝館-XLARGE",
    "district": "大安區",
    "address": "臺北市大安區忠孝東路4段45號7F",
    "earlyBird": null,
    "lat": 25.0421272,
    "lng": 121.5449393
  },
  "01ba8daa-2fa0-43ca-aa68-17ab19af26f0": {
    "name": "小串酒場居酒屋",
    "district": "大安區",
    "address": "臺北市大安區華聲里延吉街１３１巷３３號",
    "earlyBird": true,
    "lat": 25.0428878,
    "lng": 121.5555952
  },
  "01bc2f87-d63c-4ce6-a858-85a461fddeaa": {
    "name": "遠東SOGO忠孝館-東洋",
    "district": "大安區",
    "address": "臺北市大安區忠孝東路4段45號B1F",
    "earlyBird": null,
    "lat": 25.0421272,
    "lng": 121.5449393
  },
  "01c19219-db4b-4904-aaec-a34f606b1434": {
    "name": "WINK1號店",
    "district": "中正區",
    "address": "臺北市中正區建國里延平南路１１１號２樓",
    "earlyBird": true,
    "lat": 25.041816,
    "lng": 121.509581
  },
  "01c95db6-d6e2-40bc-973f-aa72e5085caf": {
    "name": "時代百貨-me.luxe-2445",
    "district": "信義區",
    "address": "臺北市信義區忠孝東路5段8號2樓",
    "earlyBird": null,
    "lat": 25.0406227,
    "lng": 121.5654586
  },
  "01d956b5-2a86-453e-9c25-a2dfbd198bda": {
    "name": "金門風味館台北店",
    "district": "松山區",
    "address": "臺北市松山區慈祐里饒河街１４２號",
    "earlyBird": true,
    "lat": 25.0503221,
    "lng": 121.5754048
  },
  "01e4ac6e-a2a0-496c-81d4-a54cdc7b26d6": {
    "name": "灃興輪胎股份有限公司",
    "district": "中正區",
    "address": "臺北市中正區和平西路一段147號",
    "earlyBird": false,
    "lat": 25.0276356,
    "lng": 121.5153956
  },
  "01e5e9cf-b7a9-4f2e-9533-062821225313": {
    "name": "新光三越A11-HILLTOP",
    "district": "信義區",
    "address": "臺北市信義區松壽路１１號",
    "earlyBird": null,
    "lat": 25.0367103,
    "lng": 121.5672369
  },
  "01e66fdd-4d23-43b1-991f-8ec9a25f285d": {
    "name": "Melting Finger 韓國馬卡龍專賣店",
    "district": "大安區",
    "address": "臺北市大安區龍生里瑞安街２４８號",
    "earlyBird": true,
    "lat": 25.0270663,
    "lng": 121.5397435
  },
  "01ea7871-e10b-49cd-9494-6b3f9bd3c95a": {
    "name": "魔法衣櫥時尚分公司",
    "district": "大安區",
    "address": "臺北市大安區建安里忠孝東路４段２０５巷１７號",
    "earlyBird": false,
    "lat": 25.0424317,
    "lng": 121.5520113
  },
  "01ebb4f8-bdaa-409a-bbcd-6bd3b8b46758": {
    "name": "時代百貨-dyaco-4429",
    "district": "信義區",
    "address": "臺北市信義區忠孝東路5段8號4樓",
    "earlyBird": null,
    "lat": 25.040846,
    "lng": 121.565396
  },
  "01f40a32-a33c-4f9b-b39e-bfacdda31347": {
    "name": "米哥烘焙坊 大東門市",
    "district": "士林區",
    "address": "臺北市士林區大東路８２－１號１樓",
    "earlyBird": false,
    "lat": 25.090986,
    "lng": 121.5257671
  },
  "01fd1ec4-1dc2-41d8-aa37-9fa2420e3c50": {
    "name": "長勵實業有限公司",
    "district": "中正區",
    "address": "臺北市中正區博愛路16號",
    "earlyBird": true,
    "lat": 25.0465313,
    "lng": 121.5111815
  },
  "020332f5-392e-4335-ae8e-46cfd25e0f43": {
    "name": "遠東SOGO忠孝館-STARBUCKS(星巴克)",
    "district": "大安區",
    "address": "臺北市大安區忠孝東路4段45號B1F",
    "earlyBird": null,
    "lat": 25.0421272,
    "lng": 121.5449393
  },
  "0207ce68-1788-4ea1-9d1b-098f4beb75ff": {
    "name": "定食8天母家樂福店",
    "district": "士林區",
    "address": "臺北市士林區蘭興里德行西路４７號１樓",
    "earlyBird": null,
    "lat": 25.105749,
    "lng": 121.52274
  },
  "020cd6be-2272-4e64-a99d-cf615e9f9469": {
    "name": "伯朗咖啡股份有限公司台北分公司",
    "district": "中正區",
    "address": "臺北市中正區羅斯福路３段２３６－１號１樓２樓３樓",
    "earlyBird": false,
    "lat": 25.0182906,
    "lng": 121.5304187
  },
  "02142438-cf6e-46b8-ac8b-2a89492aa40c": {
    "name": "平成十九 ",
    "district": "大同區",
    "address": "臺北市大同區建泰里南京西路１８巷６弄８號",
    "earlyBird": true,
    "lat": 25.051965,
    "lng": 121.519699
  },
  "02257b7b-50c8-4b3c-ace3-c6c0e88adeb2": {
    "name": "易鄉涼麵店",
    "district": "信義區",
    "address": "臺北市信義區廣居里虎林街１３２巷９之一號",
    "earlyBird": true,
    "lat": 25.0402377,
    "lng": 121.5764809
  },
  "02258689-b90f-4497-9ea0-5cad8f591b25": {
    "name": "遠東SOGO復興館-dyson",
    "district": "大安區",
    "address": "臺北市大安區忠孝東路3段300號8F",
    "earlyBird": null,
    "lat": 25.0410553,
    "lng": 121.5431553
  },
  "0227cbcc-e6e9-4b6f-9491-fc66da99368d": {
    "name": "BELLINI Pasta Pasta 南港潤泰店",
    "district": "南港區",
    "address": "臺北市南港區忠孝東路七段299號C棟8樓(CITYLINK南港店)",
    "earlyBird": false,
    "lat": 25.0522602,
    "lng": 121.6037595
  },
  "022c40ca-6acc-44df-9a06-1084fa449821": {
    "name": "新光三越信義新天地A4-OUI",
    "district": "信義區",
    "address": "臺北市信義區興雅里松高路１９號地下１樓至地下３樓﹒１樓至６樓",
    "earlyBird": null,
    "lat": 25.0396539,
    "lng": 121.5667018
  },
  "02458bd7-80d5-4dbe-82e2-b21d1bd12877": {
    "name": "新光三越A11-LANEIGE",
    "district": "信義區",
    "address": "臺北市信義區松壽路１１號",
    "earlyBird": null,
    "lat": 25.0367103,
    "lng": 121.5672369
  },
  "0257dd2f-4826-4d70-9aca-1218134198ef": {
    "name": "新光三越A11-紐萊賜",
    "district": "信義區",
    "address": "臺北市信義區松壽路１１號",
    "earlyBird": null,
    "lat": 25.0367103,
    "lng": 121.5672369
  },
  "02592a10-94e4-4a6c-99d6-f377d4241722": {
    "name": "TAKU日式串燒",
    "district": "中正區",
    "address": "臺北市中正區黎明里懷寧街106-1號",
    "earlyBird": true,
    "lat": 25.0418831,
    "lng": 121.5139209
  },
  "025add10-b713-4b21-9520-b507e53f6c64": {
    "name": "遠企購物中心-卡蘿米爾",
    "district": "大安區",
    "address": "臺北市大安區敦化南路2段203號B1樓",
    "earlyBird": null,
    "lat": 25.0264181,
    "lng": 121.5494531
  },
  "0269240d-ecf2-44e5-a72a-87bf1a4b9a24": {
    "name": "四時輕燒肉概念屋 | 台北最強健康環保輕燒肉",
    "district": "松山區",
    "address": "臺北市松山區敦化里八德路３段１２巷１６弄１號",
    "earlyBird": true,
    "lat": 25.0470917,
    "lng": 121.5506003
  },
  "026cf5e1-e0dd-4e5b-9776-0494089c4ab4": {
    "name": "遠百信義A13-華齊堂",
    "district": "信義區",
    "address": "臺北市信義區松仁路58號B3樓",
    "earlyBird": null,
    "lat": 25.0368519,
    "lng": 121.5677823
  },
  "0270ddb9-0f95-4119-bf37-8b4a00d96ff3": {
    "name": "遠東SOGO敦化館-S.FERRAGAMO",
    "district": "大安區",
    "address": "臺北市大安區敦化南路1段246號1F",
    "earlyBird": null,
    "lat": 25.0401203,
    "lng": 121.5481393
  },
  "027fc095-db7c-494e-adcc-8c6aa390418c": {
    "name": "翠園小吃店",
    "district": "大安區",
    "address": "臺北市大安區新生南路３段２０－２號１樓",
    "earlyBird": true,
    "lat": 25.024285,
    "lng": 121.53443
  },
  "02824c87-55b2-4a65-9203-703995717425": {
    "name": "新鮮人秘書有限公司",
    "district": "內湖區",
    "address": "臺北市內湖區明湖里康寧路３段１８９巷２１弄２７號２樓",
    "earlyBird": true,
    "lat": 25.0712464,
    "lng": 121.6122504
  },
  "028b0260-c0a1-4ae2-8955-ee1b241f7e2e": {
    "name": "新光三越A8-皇室",
    "district": "信義區",
    "address": "臺北市信義區松高路12號",
    "earlyBird": null,
    "lat": 25.0382241,
    "lng": 121.5667909
  },
  "028b1f5d-1493-4478-9ef7-7b61cc126864": {
    "name": "糕菲庇護工場",
    "district": "內湖區",
    "address": "臺北市內湖區行愛路140巷25號",
    "earlyBird": false,
    "lat": 25.0636346,
    "lng": 121.5793368
  },
  "028bf6e5-d9d4-4988-9099-037c477af571": {
    "name": "屈臣氏光南店",
    "district": "信義區",
    "address": "臺北市信義區台北市信義區光復南路445-1、445-2號",
    "earlyBird": false,
    "lat": 25.0354098,
    "lng": 121.5577239
  },
  "029414a0-bac1-40ab-abcb-e51323eb3b8a": {
    "name": "迷客夏小巨蛋",
    "district": "松山區",
    "address": "臺北市松山區健康路100號",
    "earlyBird": false,
    "lat": 25.0533509,
    "lng": 121.5549068
  },
  "029e0683-e32c-4ec0-a301-5064e8ed8eb4": {
    "name": "小靚寶",
    "district": "松山區",
    "address": "臺北市松山區中崙里八德路２段３４６巷１弄３號",
    "earlyBird": false,
    "lat": 25.047305,
    "lng": 121.5449377
  },
  "02ab1e6b-d143-4b31-a20c-8452f5065862": {
    "name": "BELLINI Pasta Pasta信義威秀店",
    "district": "信義區",
    "address": "臺北市信義區西村里松壽路２０號２樓(華納威秀)",
    "earlyBird": false,
    "lat": 25.0352646,
    "lng": 121.5672596
  },
  "02b380b5-38e1-44dc-8900-1f34f2a92964": {
    "name": "ATT e Life 大直店_SHOCK燒肉",
    "district": "中山區",
    "address": "臺北市中山區敬業三路123號6樓",
    "earlyBird": null,
    "lat": 25.0810846,
    "lng": 121.5554643
  },
  "02b68a5a-e422-49f2-b298-3d5c36f2b893": {
    "name": "大頭土雞城餐廳",
    "district": "文山區",
    "address": "臺北市文山區指南路3段38巷18-2號",
    "earlyBird": true,
    "lat": 24.9686652,
    "lng": 121.5877448
  },
  "02bb6527-e052-4c71-8a8b-a692151f74f6": {
    "name": "新光三越天母店一館-STARBRANDS",
    "district": "士林區",
    "address": "臺北市士林區天福里天母東路６８號",
    "earlyBird": null,
    "lat": 25.1178315,
    "lng": 121.5338781
  },
  "02c37c7a-1561-4e39-8294-209500bd606e": {
    "name": "九五樂府",
    "district": "萬華區",
    "address": "臺北市萬華區萬壽里漢口街２段２０巷１１號１樓",
    "earlyBird": true,
    "lat": 25.0448222,
    "lng": 121.5080273
  },
  "02c8997b-c5b7-454b-bbd6-bb79c6a9eda3": {
    "name": "新光三越A11-MARCH MOON",
    "district": "信義區",
    "address": "臺北市信義區松壽路１１號",
    "earlyBird": null,
    "lat": 25.0367103,
    "lng": 121.5672369
  },
  "02c89da1-741f-46c1-be10-76a6a1f11b49": {
    "name": "遠企購物中心-GREARD DAREL",
    "district": "大安區",
    "address": "臺北市大安區敦化南路2段203號4樓",
    "earlyBird": null,
    "lat": 25.0263019,
    "lng": 121.5493621
  },
  "02cb81b2-6269-4055-8218-52fb64ef79d4": {
    "name": "TAIPEI101-Breguet-B0654",
    "district": "信義區",
    "address": "臺北市信義區市府路45號",
    "earlyBird": null,
    "lat": 25.0341222,
    "lng": 121.5640212
  },
  "02cb9497-b192-4796-a1c6-f6bc0663c9ab": {
    "name": "麗晶精品-Curious",
    "district": "中山區",
    "address": "臺北市中山區中山北路二段39巷3號",
    "earlyBird": false,
    "lat": 25.0541575,
    "lng": 121.5242879
  },
  "02e19593-beda-4fcd-842d-ef2032513ec0": {
    "name": "遠東SOGO天母館-PANASONIC",
    "district": "士林區",
    "address": "臺北市士林區中山北路6段77號6F",
    "earlyBird": null,
    "lat": 25.105306,
    "lng": 121.5245943
  },
  "02ea6ab3-5225-4da7-8481-39a7869e8029": {
    "name": "普雷伊永春門市",
    "district": "信義區",
    "address": "臺北市信義區富臺里忠孝東路五段４７７之５號",
    "earlyBird": false,
    "lat": 25.041003,
    "lng": 121.57732
  },
  "02f1ab79-a9c3-4891-bc98-04f52159a0de": {
    "name": "東門餃子館",
    "district": "大安區",
    "address": "臺北市大安區金山南路２段３１巷３７號",
    "earlyBird": true,
    "lat": 25.0328506,
    "lng": 121.5287807
  },
  "02fe6f60-b885-4af9-a800-37d61721aabf": {
    "name": "大葉高島屋-adidas",
    "district": "士林區",
    "address": "臺北市士林區忠誠路二段55號",
    "earlyBird": null,
    "lat": 25.1118523,
    "lng": 121.5314695
  },
  "02ff508f-e5e6-4957-b9c1-e31cc9c59a15": {
    "name": "新光三越A11-EMINENT",
    "district": "信義區",
    "address": "臺北市信義區松壽路１１號",
    "earlyBird": null,
    "lat": 25.0367103,
    "lng": 121.5672369
  },
  "030cef9a-9dc2-478c-8bd4-bc493cc7bf6f": {
    "name": "遠百信義A13-LEGO",
    "district": "信義區",
    "address": "臺北市信義區松仁路58號3樓",
    "earlyBird": null,
    "lat": 25.0368519,
    "lng": 121.5677823
  },
  "03214996-1020-45b1-8dcd-ad54428460a9": {
    "name": "康是美西園門市",
    "district": "萬華區",
    "address": "臺北市萬華區忠德里西園路２段２１９號１樓",
    "earlyBird": false,
    "lat": 25.0270176,
    "lng": 121.4941314
  },
  "032bbdfc-4aec-4536-b18d-2570ab769e5a": {
    "name": "遠東SOGO忠孝館-Kinloch Anderson",
    "district": "大安區",
    "address": "臺北市大安區忠孝東路4段45號5F",
    "earlyBird": null,
    "lat": 25.0421272,
    "lng": 121.5449393
  },
  "032d6281-3032-45ea-8e88-24b35c51f7a2": {
    "name": "辛一鍋",
    "district": "文山區",
    "address": "臺北市文山區樟新里木新路三段２３１號１樓",
    "earlyBird": true,
    "lat": 24.9811401,
    "lng": 121.5590325
  },
  "03302865-6bd5-46e6-b1ec-519b7152df72": {
    "name": "微風艾妥列-'KOBE SWEETS CAFÉ",
    "district": "信義區",
    "address": "臺北市信義區松智路17號",
    "earlyBird": null,
    "lat": 25.0343073,
    "lng": 121.5659555
  },
  "0335c45c-9126-4990-89ac-85e082775d79": {
    "name": "金台峰銀樓",
    "district": "士林區",
    "address": "臺北市士林區延平北路６段２８號１樓",
    "earlyBird": true,
    "lat": 25.087466,
    "lng": 121.509137
  },
  "0338d3b0-5747-40d7-8ccb-519c0ab9d5aa": {
    "name": "Mum Mum 環球購物中心南港車站店",
    "district": "南港區",
    "address": "臺北市南港區忠孝東路七段371號B1F",
    "earlyBird": null,
    "lat": 25.0528955,
    "lng": 121.6072597
  },
  "033b2caa-f14d-4094-96ea-409e372296a2": {
    "name": "30hoursBakery",
    "district": "內湖區",
    "address": "臺北市內湖區康寧路三段99巷10弄5號",
    "earlyBird": true,
    "lat": 25.0722231,
    "lng": 121.6105953
  },
  "033f5edb-0635-49be-9ac7-46205e9cb4d1": {
    "name": "三創生活園區_ASUS                ",
    "district": "中正區",
    "address": "臺北市中正區市民大道三段2號",
    "earlyBird": null,
    "lat": 25.0454246,
    "lng": 121.5313973
  },
  "0343e311-387f-4d9b-9b93-d6c2f24729f4": {
    "name": "遠東SOGO天母館-Diffa",
    "district": "士林區",
    "address": "臺北市士林區中山北路6段77號(3F)",
    "earlyBird": null,
    "lat": 25.105306,
    "lng": 121.5245943
  },
  "03459393-9eef-40fa-be2c-86ea948e3298": {
    "name": "屈臣氏內湖店",
    "district": "內湖區",
    "address": "臺北市內湖區台北市內湖區成功路四段46號",
    "earlyBird": null,
    "lat": 25.0819403,
    "lng": 121.5917814
  },
  "036426e4-b34e-4f95-9cc3-41d831c1a0a1": {
    "name": "大葉高島屋-匠運russet",
    "district": "士林區",
    "address": "臺北市士林區忠誠路二段55號",
    "earlyBird": null,
    "lat": 25.1118523,
    "lng": 121.5314695
  },
  "03697fd4-4bf2-465e-bb03-5235f6b53394": {
    "name": "小島田TOGO 關渡店",
    "district": "北投區",
    "address": "臺北市北投區大度路三段270巷73號",
    "earlyBird": false,
    "lat": 25.12494,
    "lng": 121.4671915
  },
  "037c5389-52d4-413d-9541-1e27897ed51d": {
    "name": "遠百台北寶慶店-褔城NIKE",
    "district": "中正區",
    "address": "臺北市中正區寶慶路32號8F ",
    "earlyBird": null,
    "lat": 25.0414461,
    "lng": 121.5090757
  },
  "03867490-4cbf-47f2-9c34-2559b43062f8": {
    "name": "新光三越A11-有漁",
    "district": "信義區",
    "address": "臺北市信義區松壽路１１號",
    "earlyBird": null,
    "lat": 25.0367103,
    "lng": 121.5672369
  },
  "038ae433-4aaf-4249-bb37-46ffe58f1409": {
    "name": "微風南山-花蓮一品香",
    "district": "信義區",
    "address": "臺北市信義區松智路17號",
    "earlyBird": null,
    "lat": 25.0343073,
    "lng": 121.5659555
  },
  "03941d90-7050-4779-bc8d-5a2aaf233354": {
    "name": "鐵哥的羽球專門店",
    "district": "大安區",
    "address": "臺北市大安區龍淵里復興南路２段３０４號１樓",
    "earlyBird": true,
    "lat": 25.0237498,
    "lng": 121.543227
  },
  "03956fd4-b0b1-491a-804d-35783d52fec4": {
    "name": "躍獅松和藥局",
    "district": "松山區",
    "address": "臺北市松山區慈祐里八德路４段６６６－１號１樓",
    "earlyBird": null,
    "lat": 25.0498973,
    "lng": 121.5760663
  },
  "03a56e9b-a3bc-4513-a406-d91475c89141": {
    "name": "三創生活園區_BEARBOSS-電腦包",
    "district": "中正區",
    "address": "臺北市中正區市民大道三段2號",
    "earlyBird": null,
    "lat": 25.0454246,
    "lng": 121.5313973
  },
  "03b4228b-d7f2-4902-b06c-9742a65a99a6": {
    "name": "時代百貨-iRobot-6443",
    "district": "信義區",
    "address": "臺北市信義區忠孝東路5段8號6樓",
    "earlyBird": null,
    "lat": 25.0408461,
    "lng": 121.5653962
  },
  "03b6050d-ef40-4c0e-8113-c614538ff057": {
    "name": "大葉高島屋-PAUL",
    "district": "士林區",
    "address": "臺北市士林區忠誠路二段55號",
    "earlyBird": null,
    "lat": 25.1118523,
    "lng": 121.5314695
  },
  "03b85d7a-0195-44d2-bf44-83f5cc711342": {
    "name": "京站-維格餅家",
    "district": "大同區",
    "address": "臺北市大同區承德路一段1號",
    "earlyBird": null,
    "lat": 25.0492915,
    "lng": 121.5172486
  },
  "03b93f5a-c77c-4d6d-836f-53991c00f336": {
    "name": "微風台北車站-太陽堂老店",
    "district": "中正區",
    "address": "臺北市中正區北平西路3號2樓、1樓及地下1樓",
    "earlyBird": null,
    "lat": 25.0475172,
    "lng": 121.5159125
  },
  "03bc17a3-8830-4686-9c4d-a51cf63f59e5": {
    "name": "遠東SOGO敦化館-MOSCHINO",
    "district": "大安區",
    "address": "臺北市大安區敦化南路1段246號2F",
    "earlyBird": null,
    "lat": 25.0401203,
    "lng": 121.5481393
  },
  "03c17212-010c-440a-b14c-3997934c9fc4": {
    "name": "京站-OWNDAYS",
    "district": "大同區",
    "address": "台北市大同區承德路一段一號",
    "earlyBird": null,
    "lat": 25.0504459,
    "lng": 121.5170168
  },
  "03ce9cd7-8c4a-42d2-b073-5764d0566921": {
    "name": "好食國際投資股份有限公司客美多台北站前分公司",
    "district": "中正區",
    "address": "臺北市中正區忠孝西路一段36號1樓",
    "earlyBird": false,
    "lat": 25.0459993,
    "lng": 121.5170414
  },
  "03d0a4d1-62c1-4c35-9123-c064981921cd": {
    "name": "遠東SOGO天母館-Bluedeer",
    "district": "士林區",
    "address": "臺北市士林區中山北路6段77號(2F)",
    "earlyBird": null,
    "lat": 25.105306,
    "lng": 121.5245943
  },
  "03d67e24-c8b7-4255-8bd9-e4894cbdc036": {
    "name": "遠百信義A13-老行家",
    "district": "信義區",
    "address": "臺北市信義區松仁路58號B3樓",
    "earlyBird": null,
    "lat": 25.0368519,
    "lng": 121.5677823
  },
  "03d89811-8a9c-4d30-b012-bf800a98986d": {
    "name": "ECCO 信義店",
    "district": "大安區",
    "address": "臺北市大安區永康里信義路２段１３８號",
    "earlyBird": false,
    "lat": 25.0336947,
    "lng": 121.5285148
  },
  "03db4e46-61a6-40c0-b7b5-9efba77ccd99": {
    "name": "遠東SOGO忠孝館-NARA CAMICIE",
    "district": "大安區",
    "address": "臺北市大安區忠孝東路4段45號3F",
    "earlyBird": null,
    "lat": 25.0421272,
    "lng": 121.5449393
  },
  "03ddf10e-9f8a-46b7-a875-521c032410c9": {
    "name": "時代百貨-SABON-1204",
    "district": "信義區",
    "address": "臺北市信義區忠孝東路5段8號1樓",
    "earlyBird": null,
    "lat": 25.0406564,
    "lng": 121.5654313
  },
  "03e41324-c58e-40f2-a1b0-3f1f95086364": {
    "name": "甘霖科技有限公光華門市部",
    "district": "中正區",
    "address": "臺北市中正區市民大道三段8號6樓4-1室",
    "earlyBird": true,
    "lat": 25.0450357,
    "lng": 121.5319312
  },
  "03eadc69-7b6c-4e49-ac7d-96999a30ad61": {
    "name": "遠東SOGO忠孝館-682綜合收銀台",
    "district": "大安區",
    "address": "臺北市大安區忠孝東路4段45號12F",
    "earlyBird": null,
    "lat": 25.0421272,
    "lng": 121.5449393
  },
  "03f9bc10-0fe4-4504-a961-69c37cb077a9": {
    "name": "牛魔王牛排館-饒河店",
    "district": "松山區",
    "address": "臺北市松山區慈祐里饒河街１５７號１樓",
    "earlyBird": false,
    "lat": 25.050546,
    "lng": 121.5751862
  },
  "0405668c-b180-4587-8e3a-5df949cbe4c4": {
    "name": "遠東SOGO忠孝館-GOOD GUY",
    "district": "大安區",
    "address": "臺北市大安區忠孝東路4段45號5F",
    "earlyBird": null,
    "lat": 25.0421272,
    "lng": 121.5449393
  },
  "040b5ba5-58df-41ad-871c-66458137958f": {
    "name": "TAIPEI101-Cartier-B0775",
    "district": "信義區",
    "address": "臺北市信義區市府路45號",
    "earlyBird": null,
    "lat": 25.0341222,
    "lng": 121.5640212
  },
  "040f0609-b908-4ce1-8edf-9340b297a52a": {
    "name": "Qburger 文山萬隆店",
    "district": "文山區",
    "address": "臺北市文山區萬隆里景福街4號1樓",
    "earlyBird": false,
    "lat": 24.999653,
    "lng": 121.539463
  },
  "04137b4b-f098-437a-97be-5e2c13223a1f": {
    "name": "安永生活事業股份有限公司內湖店",
    "district": "內湖區",
    "address": "臺北市內湖區內湖里成功路四段１７８號",
    "earlyBird": true,
    "lat": 25.0835882,
    "lng": 121.5938554
  },
  "0413e693-f568-476e-9144-c7af52048040": {
    "name": "新光三越A11-雪坊優格",
    "district": "信義區",
    "address": "臺北市信義區松壽路１１號",
    "earlyBird": null,
    "lat": 25.0367103,
    "lng": 121.5672369
  },
  "04228ed9-b8b0-4bac-8d90-409fbfbd04fe": {
    "name": "種子村有限公司",
    "district": "松山區",
    "address": "臺北市松山區安平里南京東路５段２５１巷２４弄２４號",
    "earlyBird": true,
    "lat": 25.0525498,
    "lng": 121.5641058
  },
  "04305ce1-73cc-433e-a5ed-63470116c0a2": {
    "name": "樂禾田",
    "district": "內湖區",
    "address": "臺北市內湖區安湖里康寧路３段１８９巷１２弄１２號１樓",
    "earlyBird": false,
    "lat": 25.0699843,
    "lng": 121.6128162
  },
  "0432f0fe-de07-41b7-b4c6-d00c2a9ff89c": {
    "name": "咖雞窩咖哩專賣店",
    "district": "南港區",
    "address": "臺北市南港區成功路一段94巷2弄",
    "earlyBird": false,
    "lat": 25.0578271,
    "lng": 121.5921427
  },
  "043dadbc-a77e-4f6a-9ab3-b2d46b01218e": {
    "name": "聖德科斯生機食品-復興東豐",
    "district": "大安區",
    "address": "臺北市大安區仁慈里復興南路一段261-2號1樓",
    "earlyBird": false,
    "lat": 25.0362293,
    "lng": 121.5438964
  },
  "0440dfe8-4d44-4af6-8d56-93e6b5862345": {
    "name": "康是美新萬隆門市",
    "district": "文山區",
    "address": "臺北市文山區萬隆里羅斯福路五段２３８號１、２樓",
    "earlyBird": false,
    "lat": 25.0014553,
    "lng": 121.538981
  },
  "044218ef-82d3-4d5d-97b5-b2d72d0e14fe": {
    "name": "Qburger 北投立農店",
    "district": "北投區",
    "address": "臺北市北投區立農街二段259號1樓",
    "earlyBird": false,
    "lat": 25.1189597,
    "lng": 121.5144748
  },
  "0443c6a0-9589-4307-b102-5c9ba98936a0": {
    "name": "微風場站店-貳樓餐廳",
    "district": "中正區",
    "address": "臺北市中正區北平西路3號2樓、1樓及地下1樓",
    "earlyBird": null,
    "lat": 25.0475172,
    "lng": 121.5159125
  },
  "044752df-7ee5-4933-8c7c-300d44f95054": {
    "name": "芳茲生技",
    "district": "中正區",
    "address": "臺北市中正區新生南路一段50號11樓",
    "earlyBird": false,
    "lat": 25.0419585,
    "lng": 121.5324956
  },
  "044a0d3a-85de-43b0-9142-d8fbfbfe644b": {
    "name": "亦樂工作室",
    "district": "中正區",
    "address": "臺北市中正區梅花里北平東路２０號６樓",
    "earlyBird": true,
    "lat": 25.0459205,
    "lng": 121.5248843
  },
  "04522e8e-34f8-4949-944b-363bd0d8ab84": {
    "name": "遠百台北寶慶店-黃子庚                        ",
    "district": "中正區",
    "address": "臺北市中正區寶慶路32號4F ",
    "earlyBird": null,
    "lat": 25.0414461,
    "lng": 121.5090757
  },
  "0457d333-6cf6-477c-b6d9-233a9b4a9627": {
    "name": "遊茶食品有限公司",
    "district": "大同區",
    "address": "臺北市大同區南芳里迪化街１段２７６號",
    "earlyBird": true,
    "lat": 25.0609575,
    "lng": 121.5092234
  },
  "045c516e-81eb-4f3c-8fe6-d7b3ff062b92": {
    "name": "鬍鬚張股份有限公司台北南昌分公司",
    "district": "中正區",
    "address": "臺北市中正區龍福里南昌路１段７０號",
    "earlyBird": false,
    "lat": 25.0331527,
    "lng": 121.5159849
  },
  "04654f7e-e315-47fe-bc09-0f525c7ef53c": {
    "name": "新光三越A11-RATHER",
    "district": "信義區",
    "address": "臺北市信義區松壽路１１號",
    "earlyBird": null,
    "lat": 25.0367103,
    "lng": 121.5672369
  },
  "047718e8-f612-47be-a2dd-b84228f95ce1": {
    "name": "遠百信義A13-SISLEY",
    "district": "信義區",
    "address": "臺北市信義區松仁路58號1樓",
    "earlyBird": null,
    "lat": 25.0367179,
    "lng": 121.5681308
  },
  "047a2261-97a9-465d-9448-e08bb7928798": {
    "name": "遠東SOGO天母店6F-2號綜合收銀台",
    "district": "士林區",
    "address": "臺北市士林區中山北路6段77號(6F)",
    "earlyBird": null,
    "lat": 25.105306,
    "lng": 121.5245943
  },
  "047a4e9f-3442-4ab8-9b04-0738ebf231c0": {
    "name": "微風信義店-漢妮家居",
    "district": "信義區",
    "address": "臺北市信義區忠孝東路5段68號1-4樓、44至46樓及地下2樓",
    "earlyBird": null,
    "lat": 25.0405444,
    "lng": 121.5667909
  },
  "0480eea5-7208-40a1-b739-b5229e72577b": {
    "name": "財團法人天主教光仁社會福利基金會光仁二手商品館忠孝店",
    "district": "大安區",
    "address": "臺北市大安區昌隆里忠孝東路３段２１７巷２弄１４號１樓",
    "earlyBird": false,
    "lat": 25.0422418,
    "lng": 121.5404956
  },
  "04904915-72e6-46d2-9bb3-c4766eaeaf8e": {
    "name": "一之鄉股份有限公司南京東路分公司",
    "district": "中山區",
    "address": "臺北市中山區復華里南京東路３段１１９號１樓",
    "earlyBird": false,
    "lat": 25.0521553,
    "lng": 121.5400439
  },
  "04910cbc-6605-4c00-a391-391e4b66c382": {
    "name": "新光三越A11-SHEE＇S FINE JEWELRY",
    "district": "信義區",
    "address": "臺北市信義區松壽路１１號",
    "earlyBird": null,
    "lat": 25.0367103,
    "lng": 121.5672369
  },
  "049127c3-f7bd-4a6e-adc0-3cdecd422da8": {
    "name": "鬍鬚張股份有限公司台北萬芳分公司",
    "district": "文山區",
    "address": "臺北市文山區興得里興隆路３段６０號",
    "earlyBird": null,
    "lat": 25.0000288,
    "lng": 121.5560657
  },
  "0492f7ff-d32b-4aab-b72f-35ccffc6344d": {
    "name": "新光三越A9-TOD'S-迪生亞洲",
    "district": "信義區",
    "address": "臺北市信義區西村里松壽路９號",
    "earlyBird": null,
    "lat": 25.0363104,
    "lng": 121.5668588
  },
  "04958195-a3ef-426b-bf8b-88b2f1a41f5c": {
    "name": "遠東SOGO復興館-HEARTS ON FIRE",
    "district": "大安區",
    "address": "臺北市大安區忠孝東路3段300號3F",
    "earlyBird": null,
    "lat": 25.0410553,
    "lng": 121.5431553
  },
  "049f5bf9-1b08-413b-b1b2-1eb52dd15076": {
    "name": "華欣書店",
    "district": "大安區",
    "address": "臺北市大安區師大路125號地下一樓",
    "earlyBird": false,
    "lat": 25.0219278,
    "lng": 121.5283452
  },
  "04a22b10-d0bd-497e-95bf-280567dbc2d5": {
    "name": "遠東SOGO復興館-CHAMPION",
    "district": "大安區",
    "address": "臺北市大安區忠孝東路3段300號6F",
    "earlyBird": null,
    "lat": 25.0410553,
    "lng": 121.5431553
  },
  "04aa19e7-501a-4a02-ae3c-0b1e7c52be6b": {
    "name": "新光三越A11-ALLSAINTS",
    "district": "信義區",
    "address": "臺北市信義區松壽路１１號",
    "earlyBird": null,
    "lat": 25.0367103,
    "lng": 121.5672369
  },
  "04ad045a-d0dd-440f-97ce-4387dc5c43e3": {
    "name": "ATT 4 FUN 信義店-阿豬媽",
    "district": "信義區",
    "address": "臺北市信義區松壽路12號",
    "earlyBird": null,
    "lat": 25.0353886,
    "lng": 121.5660759
  },
  "04ba217c-ab48-4306-8219-4d0ec951c482": {
    "name": "温德德式烘焙餐館",
    "district": "士林區",
    "address": "臺北市士林區蘭興里德行西路５號",
    "earlyBird": false,
    "lat": 25.1065054,
    "lng": 121.5243548
  },
  "04c69b6d-df5b-4cdd-8d5a-19d1c4d66ad2": {
    "name": "CEO1950總裁藝文空間",
    "district": "中山區",
    "address": "臺北市中山區晴光里新生北路３段６２巷２４號",
    "earlyBird": null,
    "lat": 25.06572,
    "lng": 121.526541
  },
  "04c6f473-d380-489b-bffc-657bf69d2645": {
    "name": "遠東SOGO忠孝館-根來皮件",
    "district": "大安區",
    "address": "臺北市大安區忠孝東路4段45號7F",
    "earlyBird": null,
    "lat": 25.0421272,
    "lng": 121.5449393
  },
  "04cd4e8d-edca-4553-a6e3-c765fece022a": {
    "name": "新光三越A8-PIZZA CUT FIVE",
    "district": "信義區",
    "address": "臺北市信義區松高路12號",
    "earlyBird": null,
    "lat": 25.0382241,
    "lng": 121.5667909
  },
  "04d031ba-441a-4f52-9c3e-8ab11d48f836": {
    "name": "京站-果銀",
    "district": "大同區",
    "address": "台北市大同區承德路一段一號",
    "earlyBird": null,
    "lat": 25.0504459,
    "lng": 121.5170168
  },
  "04db26cc-4a79-468e-91cb-80a7e0ddd512": {
    "name": "新瑞書店有限公司",
    "district": "大安區",
    "address": "臺北市大安區民輝里八德路２段２９號",
    "earlyBird": false,
    "lat": 25.0447562,
    "lng": 121.5337984
  },
  "04de1d0b-90e5-4cdf-8cc3-8a4a3a179bc6": {
    "name": "4F劇場咖啡",
    "district": "中正區",
    "address": "臺北市中正區光復里延平南路９８號４樓",
    "earlyBird": false,
    "lat": 25.0425041,
    "lng": 121.5103541
  },
  "04e9c7a7-75ab-473e-a7b5-5db20ef8f297": {
    "name": "遠東SOGO天母館-PLEATS PLEASE",
    "district": "士林區",
    "address": "臺北市士林區中山北路6段77號(3F)",
    "earlyBird": null,
    "lat": 25.105306,
    "lng": 121.5245943
  },
  "04f090c6-4f58-4299-a0be-24715ae96e87": {
    "name": "微風信義店-麻辣45",
    "district": "信義區",
    "address": "臺北市信義區忠孝東路5段68號1-4樓、44至46樓及地下2樓",
    "earlyBird": null,
    "lat": 25.0405444,
    "lng": 121.5667909
  },
  "04fb76bf-d513-49dd-8ac8-0d3cc1917f81": {
    "name": "米哥烘焙坊 環球購物中心南港車站店",
    "district": "南港區",
    "address": "臺北市南港區忠孝東路七段371號B1F",
    "earlyBird": null,
    "lat": 25.0528955,
    "lng": 121.6072597
  },
  "04fda34c-5383-49d5-9c3c-30b1e2f4dc9c": {
    "name": "微風南山店-Second Floor貳樓",
    "district": "信義區",
    "address": "臺北市信義區松智路17號",
    "earlyBird": null,
    "lat": 25.0343073,
    "lng": 121.5659555
  },
  "0500dc4e-6803-4a21-88fb-37164278c0e8": {
    "name": "寶島眼鏡德行東路一分公司",
    "district": "士林區",
    "address": "臺北市士林區德行東路181號",
    "earlyBird": null,
    "lat": 25.1088496,
    "lng": 121.5311084
  },
  "050192cc-5215-4b00-afb0-c8e699f63b40": {
    "name": "新光三越A8-GUNZE",
    "district": "信義區",
    "address": "臺北市信義區松高路12號",
    "earlyBird": null,
    "lat": 25.0382241,
    "lng": 121.5667909
  },
  "0503bd85-2bd7-40d1-9a1f-c6c57791ae2d": {
    "name": "時代百貨-Epanouir-8405",
    "district": "信義區",
    "address": "臺北市信義區忠孝東路5段8號B1樓",
    "earlyBird": null,
    "lat": 25.0408461,
    "lng": 121.5653964
  },
  "05062310-35bc-479b-bdb9-698a958c5590": {
    "name": "悅心緣素食坊",
    "district": "北投區",
    "address": "臺北市北投區福興里自強街５巷１６３號",
    "earlyBird": true,
    "lat": 25.1127823,
    "lng": 121.5104001
  },
  "051924fe-72cf-47c9-bc8c-91f3dda479ff": {
    "name": "京站-Sabon shoes",
    "district": "大同區",
    "address": "台北市大同區承德路一段一號",
    "earlyBird": null,
    "lat": 25.0504459,
    "lng": 121.5170168
  },
  "051a590b-c0e5-4c45-ae92-20aa474ac9d9": {
    "name": "外婆家高雄古早味三明治",
    "district": "內湖區",
    "address": "臺北市內湖區內湖路１段２８５巷５９弄４號１樓",
    "earlyBird": true,
    "lat": 25.0825776,
    "lng": 121.5667018
  },
  "051d5d21-e77a-466e-b2ec-5f76095b32fa": {
    "name": "米哥烘焙坊 社子門市",
    "district": "士林區",
    "address": "臺北市士林區延平北路六段57號一樓",
    "earlyBird": false,
    "lat": 25.0878101,
    "lng": 121.5087952
  },
  "051f0d63-b505-48c4-b6de-8bd695aec994": {
    "name": "新光三越信義新天地A4-上信饌玉",
    "district": "信義區",
    "address": "臺北市信義區興雅里松高路１９號地下１樓至地下３樓﹒１樓至６樓",
    "earlyBird": null,
    "lat": 25.0396539,
    "lng": 121.5667018
  },
  "0524fab2-8d14-48a0-8869-73a0e2b5ad5c": {
    "name": "遠百信義A13-Ascis+AT",
    "district": "信義區",
    "address": "臺北市信義區松仁路58號7樓",
    "earlyBird": null,
    "lat": 25.0368737,
    "lng": 121.5679503
  },
  "0529a03d-78eb-43c4-91bf-d1b68746d2b2": {
    "name": "Mister Dount-兒樂店",
    "district": "士林區",
    "address": "臺北市士林區承德路五段五十五號",
    "earlyBird": false,
    "lat": 25.0939903,
    "lng": 121.5147315
  },
  "0531478f-b5db-400f-83f4-10420d656f30": {
    "name": "三創生活園區_百八魚場",
    "district": "中正區",
    "address": "臺北市中正區市民大道三段2號",
    "earlyBird": null,
    "lat": 25.0454246,
    "lng": 121.5313973
  },
  "053469e3-fe24-4280-ad79-ee035dce2645": {
    "name": "新光三越A9-BURBERRY-博柏利",
    "district": "信義區",
    "address": "臺北市信義區西村里松壽路９號",
    "earlyBird": null,
    "lat": 25.0363104,
    "lng": 121.5668588
  },
  "0538502a-dddb-42f0-89c9-d2d6f281f742": {
    "name": "新光三越天母店一館-STEAMCREAM",
    "district": "士林區",
    "address": "臺北市士林區天福里天母東路６８號",
    "earlyBird": null,
    "lat": 25.1178315,
    "lng": 121.5338781
  },
  "05419e80-a276-41ab-9825-90fbab667420": {
    "name": "ATT e Life 大直店_創室日韓時尚生活百貨",
    "district": "中山區",
    "address": "臺北市中山區敬業三路123號2樓",
    "earlyBird": null,
    "lat": 25.0812115,
    "lng": 121.5557198
  },
  "05451baf-5773-4e0f-a278-e4c0617b1901": {
    "name": "麗斯特廚具行",
    "district": "北投區",
    "address": "臺北市北投區清江路２５巷６４號１樓",
    "earlyBird": true,
    "lat": 25.1316823,
    "lng": 121.5033339
  },
  "0547ac75-f150-4a08-889a-55f8842fb18b": {
    "name": "京站-Bellini Pasta Pasta",
    "district": "大同區",
    "address": "台北市大同區承德路一段一號",
    "earlyBird": null,
    "lat": 25.0504459,
    "lng": 121.5170168
  },
  "054d0ea1-8308-46b6-abe6-b42a97971936": {
    "name": "萊登傘店",
    "district": "大同區",
    "address": "臺北市大同區民生西路47號b1F(中山地下街B56-2號店鋪)",
    "earlyBird": true,
    "lat": 25.0578702,
    "lng": 121.5206332
  },
  "0558fd17-9862-42b2-ac59-39d3b6485d57": {
    "name": "昱晧服飾行",
    "district": "大安區",
    "address": "臺北市大安區建安里忠孝東路４段１８１巷１１號１樓",
    "earlyBird": false,
    "lat": 25.042284,
    "lng": 121.550868
  },
  "055e5109-962a-47fd-a531-05e23522aff6": {
    "name": "遠東SOGO忠孝館-CK J",
    "district": "大安區",
    "address": "臺北市大安區忠孝東路4段45號6F",
    "earlyBird": null,
    "lat": 25.0421272,
    "lng": 121.5449393
  },
  "055f1983-1451-4e9d-b80e-d61d3678f05a": {
    "name": "遠東SOGO復興館-Barbour",
    "district": "大安區",
    "address": "臺北市大安區忠孝東路3段300號7F",
    "earlyBird": null,
    "lat": 25.0410553,
    "lng": 121.5431553
  },
  "0566d67e-7c2e-4625-b990-1aac172d016d": {
    "name": "遠東SOGO天母館-THE BODY SHOP",
    "district": "士林區",
    "address": "臺北市士林區中山北路6段77號(2F)",
    "earlyBird": null,
    "lat": 25.105306,
    "lng": 121.5245943
  },
  "0566f27a-031d-4f46-a44e-4d39081969ca": {
    "name": "遠百信義A13-Chanel",
    "district": "信義區",
    "address": "臺北市信義區松仁路58號1樓",
    "earlyBird": null,
    "lat": 25.0367179,
    "lng": 121.5681308
  },
  "05678d62-2cb6-4b7d-9f89-aebb330fba7b": {
    "name": "微風台大醫院商場店-21風味館",
    "district": "中正區",
    "address": "臺北市中正區中山南路7號地下1樓",
    "earlyBird": null,
    "lat": 25.0405612,
    "lng": 121.5190036
  },
  "05683777-06c7-44f7-98d6-1d8d2f322863": {
    "name": "初の鮨",
    "district": "信義區",
    "address": "臺北市信義區三張里莊敬路４０９號１樓",
    "earlyBird": true,
    "lat": 25.027447,
    "lng": 121.566221
  },
  "057484b2-9783-4a63-8828-6e5f64f0c1c5": {
    "name": "遠東SOGO忠孝館-302綜合收銀台",
    "district": "大安區",
    "address": "臺北市大安區忠孝東路4段45號12F",
    "earlyBird": null,
    "lat": 25.0421272,
    "lng": 121.5449393
  },
  "05793125-665c-4187-889c-24f54567b9fa": {
    "name": "大葉高島屋-HABU",
    "district": "士林區",
    "address": "臺北市士林區忠誠路二段55號",
    "earlyBird": null,
    "lat": 25.1118523,
    "lng": 121.5314695
  },
  "057fa60e-26fc-41df-8a1b-f867a85b68b3": {
    "name": "新光三越A8-五個銅貨",
    "district": "信義區",
    "address": "臺北市信義區松高路12號",
    "earlyBird": null,
    "lat": 25.0382241,
    "lng": 121.5667909
  },
  "05812b40-8114-46f5-82f2-f3a0b531a17e": {
    "name": "新光三越天母店一館-DIFFA",
    "district": "士林區",
    "address": "臺北市士林區天福里天母東路６８號",
    "earlyBird": null,
    "lat": 25.1178315,
    "lng": 121.5338781
  },
  "058a01cb-0b16-4459-a73b-23bef545e0c3": {
    "name": "大葉高島屋-廣田洋菓子",
    "district": "士林區",
    "address": "臺北市士林區忠誠路二段55號",
    "earlyBird": null,
    "lat": 25.1118523,
    "lng": 121.5314695
  },
  "0596d97a-7179-4f8c-995e-3d6d209de09a": {
    "name": "日藥本舖-台北南西門市",
    "district": "大同區",
    "address": "臺北市大同區南京西路46號",
    "earlyBird": false,
    "lat": 25.0527343,
    "lng": 121.5192527
  },
  "059fd3cb-eaf6-432a-879f-e6894c61c8d3": {
    "name": "大戶屋-南京復興店",
    "district": "松山區",
    "address": "臺北市松山區南京東路三段258號2樓",
    "earlyBird": false,
    "lat": 25.0515859,
    "lng": 121.5448389
  },
  "05a04d06-be23-4b14-b8b6-23963e8dc885": {
    "name": "微風台北車站-德益",
    "district": "中正區",
    "address": "臺北市中正區北平西路3號2樓、1樓及地下1樓",
    "earlyBird": null,
    "lat": 25.0475172,
    "lng": 121.5159125
  },
  "05a48f1a-a4aa-4fd4-9bc1-d38702853526": {
    "name": "路易莎-南港蔦屋門市",
    "district": "南港區",
    "address": "臺北市南港區忠孝東路7段369號2樓(南港CITYLINK A棟)",
    "earlyBird": null,
    "lat": 25.0526405,
    "lng": 121.6059866
  },
  "05af7724-3587-4b95-b7e2-673cd81c8b44": {
    "name": "金和家具行",
    "district": "中正區",
    "address": "臺北市中正區南福里南昌路二段６７號",
    "earlyBird": true,
    "lat": 25.02745,
    "lng": 121.520524
  },
  "05b396bc-c9fb-4965-844e-2b0d7b6ec02f": {
    "name": "爭鮮股份有限公司北醫分公司",
    "district": "信義區",
    "address": "臺北市信義區三張里吳興街２７３號１樓",
    "earlyBird": null,
    "lat": 25.0267429,
    "lng": 121.5641613
  },
  "05b5db4b-5d6e-40d3-8c02-f600df8808ad": {
    "name": "京站-GLOBAL WORK",
    "district": "大同區",
    "address": "台北市大同區承德路一段一號",
    "earlyBird": null,
    "lat": 25.0504459,
    "lng": 121.5170168
  },
  "05b7128e-91d3-40f9-bd32-06f7c1102491": {
    "name": "遠東SOGO天母館-O＇RIGHT",
    "district": "士林區",
    "address": "臺北市士林區中山北路6段77號(3F)",
    "earlyBird": null,
    "lat": 25.105306,
    "lng": 121.5245943
  },
  "05cf2d3d-f6bf-4441-af09-7d323045bf07": {
    "name": "新光三越台北南西店三館-GBA",
    "district": "中山區",
    "address": "臺北市中山區南京西路15號",
    "earlyBird": null,
    "lat": 25.0527485,
    "lng": 121.5206836
  },
  "05d5db35-270c-4c43-847e-d8fadfb82713": {
    "name": "新光三越信義新天地A4-POLA",
    "district": "信義區",
    "address": "臺北市信義區興雅里松高路１９號地下１樓至地下３樓﹒１樓至６樓",
    "earlyBird": null,
    "lat": 25.0396539,
    "lng": 121.5667018
  },
  "05d62654-b51c-454e-8494-51ebbf18aa97": {
    "name": "ATT 4 FUN 信義店-Nitt Accessories",
    "district": "信義區",
    "address": "臺北市信義區松壽路12號",
    "earlyBird": null,
    "lat": 25.0353886,
    "lng": 121.5660759
  },
  "05da0323-1698-4de9-879c-ca65953bfd71": {
    "name": "大峰利商行",
    "district": "士林區",
    "address": "臺北市士林區德行東路１０９巷５號１樓",
    "earlyBird": true,
    "lat": 25.1079301,
    "lng": 121.5281758
  },
  "05da9cba-eed2-4ab5-a655-d66d163aab9c": {
    "name": "遠百信義A13-小南門-豆花",
    "district": "信義區",
    "address": "臺北市信義區松仁路58號B3樓",
    "earlyBird": null,
    "lat": 25.0368519,
    "lng": 121.5677823
  },
  "05e1ce76-a95b-4ac9-856e-a8ba0dce458d": {
    "name": "新光三越A11-VICTORINOX",
    "district": "信義區",
    "address": "臺北市信義區松壽路１１號",
    "earlyBird": null,
    "lat": 25.0367103,
    "lng": 121.5672369
  },
  "05e409dd-aa32-46c4-81df-71480ebd57a4": {
    "name": "遠百台北寶慶店-歐風西服                      ",
    "district": "中正區",
    "address": "臺北市中正區寶慶路32號7F ",
    "earlyBird": null,
    "lat": 25.0414461,
    "lng": 121.5090757
  },
  "05f2dea0-cd7c-4d96-bf34-c40e1151afac": {
    "name": "聯通漢芳",
    "district": "大同區",
    "address": "臺北市大同區迪化街一段92號",
    "earlyBird": true,
    "lat": 25.0560921,
    "lng": 121.5098302
  },
  "05f8afac-6336-4863-b4a7-1e86f33a226d": {
    "name": "微風南山店-悠拉麵",
    "district": "信義區",
    "address": "臺北市信義區松智路17號",
    "earlyBird": null,
    "lat": 25.0343073,
    "lng": 121.5659555
  },
  "05f935ab-5da5-48cb-8b12-527115976ec3": {
    "name": "遠百台北寶慶店-Anita Su                      ",
    "district": "中正區",
    "address": "臺北市中正區寶慶路32號2F ",
    "earlyBird": null,
    "lat": 25.0414876,
    "lng": 121.5091667
  },
  "05f9c843-1d49-4d16-9a3f-1d3b85ca75f5": {
    "name": "亞尼克台北民生店",
    "district": "松山區",
    "address": "臺北市松山區精忠里民生東路４段６１號１樓",
    "earlyBird": false,
    "lat": 25.0580149,
    "lng": 121.5507859
  },
  "05fa60c2-1e2e-43c3-8825-bd4a2f27d86d": {
    "name": "京站-Le Coq Sportif",
    "district": "大同區",
    "address": "台北市大同區承德路一段一號",
    "earlyBird": null,
    "lat": 25.0504459,
    "lng": 121.5170168
  },
  "05fc19b7-5950-4569-b209-46de0399422a": {
    "name": "遠東SOGO復興館-J&NINA",
    "district": "大安區",
    "address": "臺北市大安區忠孝東路3段300號5F",
    "earlyBird": null,
    "lat": 25.0410553,
    "lng": 121.5431553
  },
  "05fe292d-d121-436b-8b67-e635daca2cb8": {
    "name": "米可露鹿食品有限公司",
    "district": "士林區",
    "address": "臺北市士林區舊佳里文林路４５０號",
    "earlyBird": true,
    "lat": 25.0954132,
    "lng": 121.5246438
  },
  "06027909-d8dc-45bd-9e9f-108d6c91bc96": {
    "name": "丰禾台北南京東店",
    "district": "中山區",
    "address": "臺北市中山區南京東路二段146號2樓",
    "earlyBird": null,
    "lat": 25.0517249,
    "lng": 121.5340222
  },
  "0604bb12-b189-4e5e-842e-2123ae61dbe8": {
    "name": "遠東SOGO敦化館-SOCIE HAIR",
    "district": "大安區",
    "address": "臺北市大安區敦化南路1段246號5F",
    "earlyBird": null,
    "lat": 25.0401203,
    "lng": 121.5481393
  },
  "061c41e3-6be9-42e5-8cb2-0b85fbccd806": {
    "name": "BonBlack黑洞蒔司 法式可麗餅 低GI寡醣飲品、低GI寡醣珍珠奶茶專賣店",
    "district": "大安區",
    "address": "臺北市大安區福住里永康街３１巷１２弄１號",
    "earlyBird": true,
    "lat": 25.0311389,
    "lng": 121.529985
  },
  "0627e3b0-6e1c-4453-a28a-bc7a3af832bb": {
    "name": "N.j 正韓服飾",
    "district": "中山區",
    "address": "臺北市中山區中央里四平街６３號１樓",
    "earlyBird": true,
    "lat": 25.0537891,
    "lng": 121.5339107
  },
  "062b20e0-f866-40ac-a6ad-cc5b5bf0ff7e": {
    "name": "LALEYBURGER",
    "district": "士林區",
    "address": "臺北市士林區百齡里前港街７４號",
    "earlyBird": false,
    "lat": 25.0848833,
    "lng": 121.5201096
  },
  "06321efb-7db9-4f95-9398-1c26c40c55b5": {
    "name": "TAIWANIZE",
    "district": "萬華區",
    "address": "臺北市萬華區西寧南路177號(西門紅樓16工房內)",
    "earlyBird": false,
    "lat": 25.04214,
    "lng": 121.5072876
  },
  "0637e09a-10f0-43ba-8181-807777b3b020": {
    "name": "大葉高島屋-牛角",
    "district": "士林區",
    "address": "臺北市士林區忠誠路二段55號",
    "earlyBird": null,
    "lat": 25.1118523,
    "lng": 121.5314695
  },
  "06405680-390e-4e89-9fab-79aadf4675dd": {
    "name": "餅乾打人烘焙坊",
    "district": "大同區",
    "address": "臺北市大同區永樂里迪化街一段７２巷１４號１樓",
    "earlyBird": true,
    "lat": 25.055537,
    "lng": 121.509551
  },
  "06458572-2731-4119-bc1b-6699ce37a243": {
    "name": "時代百貨-蕾黛絲LADIES-3441",
    "district": "信義區",
    "address": "臺北市信義區忠孝東路5段8號3樓",
    "earlyBird": null,
    "lat": 25.0406724,
    "lng": 121.5654776
  },
  "064b2de1-f02c-4e86-b3f7-5040726198d4": {
    "name": "遠東SOGO敦化館-SOCIE",
    "district": "大安區",
    "address": "臺北市大安區敦化南路1段246號5F",
    "earlyBird": null,
    "lat": 25.0401203,
    "lng": 121.5481393
  },
  "06546d8c-7201-429c-a6aa-91e40421dc6f": {
    "name": "微風南山-阿舍食堂",
    "district": "信義區",
    "address": "臺北市信義區松智路17號",
    "earlyBird": null,
    "lat": 25.0343073,
    "lng": 121.5659555
  },
  "0659232f-f0a8-46f2-b470-71cf7b2f6b30": {
    "name": "新光三越A8-GODIVA",
    "district": "信義區",
    "address": "臺北市信義區松高路12號",
    "earlyBird": null,
    "lat": 25.0382241,
    "lng": 121.5667909
  },
  "065a1a55-d76b-4598-be8e-832b04562d84": {
    "name": "遠東SOGO忠孝館-想想咖哩",
    "district": "大安區",
    "address": "臺北市大安區忠孝東路4段45號B1F",
    "earlyBird": null,
    "lat": 25.0421272,
    "lng": 121.5449393
  },
  "065aa873-9d68-4f00-a3c9-bba40df42471": {
    "name": "咖博館",
    "district": "中正區",
    "address": "臺北市中正區龍光里重慶南路３段２－１號",
    "earlyBird": true,
    "lat": 25.0295551,
    "lng": 121.5151256
  },
  "065b3fd2-6081-4363-9424-72262b045b83": {
    "name": "台灣無印良品股份有限公司松山車站門市",
    "district": "信義區",
    "address": "臺北市信義區永吉里市民大道六段２８８號３樓",
    "earlyBird": false,
    "lat": 25.0492742,
    "lng": 121.5790025
  },
  "066fefda-3c4b-42f1-9ed8-23380ed7beed": {
    "name": "香蓮素食",
    "district": "大同區",
    "address": "臺北市大同區雙連里寧夏路61-1號2樓",
    "earlyBird": true,
    "lat": 25.05824,
    "lng": 121.515318
  },
  "0679a2d4-4dbc-4387-937c-f521c9b107cf": {
    "name": "Q Burger 士林通河",
    "district": "士林區",
    "address": "臺北市士林區福華里通河街１２５號",
    "earlyBird": false,
    "lat": 25.0807684,
    "lng": 121.5212972
  },
  "067fe196-ea06-4250-955c-92db422e44e3": {
    "name": "新光三越A9-LEE-昇曜",
    "district": "信義區",
    "address": "臺北市信義區西村里松壽路９號",
    "earlyBird": null,
    "lat": 25.0363104,
    "lng": 121.5668588
  },
  "0685d0e0-0a91-4bc9-b838-ab6358807ad3": {
    "name": "新光三越A11-MAX&CO",
    "district": "信義區",
    "address": "臺北市信義區松壽路１１號",
    "earlyBird": null,
    "lat": 25.0367103,
    "lng": 121.5672369
  },
  "0686506b-d031-4335-98c4-37049080b8fb": {
    "name": "太迷咖啡",
    "district": "中正區",
    "address": "臺北市中正區新營里金華街１９號",
    "earlyBird": true,
    "lat": 25.032583,
    "lng": 121.5189259
  },
  "068653e3-5be7-47f6-8fb5-7a58ec77947a": {
    "name": "龍源中藥行",
    "district": "大同區",
    "address": "臺北市大同區大有里迪化街１段１７２號",
    "earlyBird": true,
    "lat": 25.0582769,
    "lng": 121.5095874
  },
  "0687968c-8483-404a-98ab-4345068c8c89": {
    "name": "遠百信義A13-日藥本舖",
    "district": "信義區",
    "address": "臺北市信義區松仁路58號B2樓",
    "earlyBird": null,
    "lat": 25.0368519,
    "lng": 121.5677823
  },
  "06943fd1-3bef-4497-b9c0-4322abf9a60f": {
    "name": "遠企購物中心-Georg Jensen",
    "district": "大安區",
    "address": "臺北市大安區敦化南路2段203號1樓",
    "earlyBird": null,
    "lat": 25.0263019,
    "lng": 121.5493621
  },
  "0695cd88-e69c-4bd5-9f53-3a6dae9af384": {
    "name": "想想咖哩 環球購物中心南港車站店",
    "district": "南港區",
    "address": "臺北市南港區忠孝東路七段371號B1F",
    "earlyBird": null,
    "lat": 25.0528955,
    "lng": 121.6072597
  },
  "06975383-65f1-4dbd-8f82-4924bc47ec7d": {
    "name": "微風南山 -GOLDEN GOOSE",
    "district": "信義區",
    "address": "臺北市信義區松智路17號",
    "earlyBird": null,
    "lat": 25.0343073,
    "lng": 121.5659555
  },
  "06a21dae-d5f3-4001-ae87-6ac65c265148": {
    "name": "新光三越A8-LE POLKA",
    "district": "信義區",
    "address": "臺北市信義區松高路12號",
    "earlyBird": null,
    "lat": 25.0382241,
    "lng": 121.5667909
  },
  "06b1aa81-19aa-479d-85ee-e48812a73c8b": {
    "name": "新光三越A8-SKII",
    "district": "信義區",
    "address": "臺北市信義區松高路12號",
    "earlyBird": null,
    "lat": 25.0382241,
    "lng": 121.5667909
  },
  "06b8f8d5-6ca4-4aa0-a94d-1b0b67bb45c5": {
    "name": "王鍋屋-酸白菜鍋專門店",
    "district": "信義區",
    "address": "臺北市信義區興隆里逸仙路５０巷２０號１樓",
    "earlyBird": false,
    "lat": 25.0404155,
    "lng": 121.5626426
  },
  "06c8d971-06a3-4e21-afd9-86116887a969": {
    "name": "京站-TOO COOL FOR SCHOOL",
    "district": "大同區",
    "address": "台北市大同區承德路一段一號",
    "earlyBird": null,
    "lat": 25.0504459,
    "lng": 121.5170168
  },
  "06cafad3-547e-4a82-ab89-7ef281b3c065": {
    "name": "誠品生活股份有限公司松山分公司",
    "district": "信義區",
    "address": "臺北市信義區新仁里菸廠路８８號、８８號２至３樓及地下２層",
    "earlyBird": false,
    "lat": 25.0445608,
    "lng": 121.5613507
  },
  "06d0c6fc-f05d-4db1-9715-fb38721e5c4e": {
    "name": "新光三越天母店一館-TRIUMPH.內衣",
    "district": "士林區",
    "address": "臺北市士林區天福里天母東路６８號",
    "earlyBird": null,
    "lat": 25.1178315,
    "lng": 121.5338781
  },
  "06d236ce-d4f9-4008-af97-7873a0fc5bb8": {
    "name": "微風艾妥列-coen",
    "district": "信義區",
    "address": "臺北市信義區松智路17號",
    "earlyBird": null,
    "lat": 25.0343073,
    "lng": 121.5659555
  },
  "06d75bef-5784-4aee-b805-b71191261231": {
    "name": "起家雞行天宮分店",
    "district": "中山區",
    "address": "臺北市中山區新生里民權東路２段１２２號１樓",
    "earlyBird": false,
    "lat": 25.062341,
    "lng": 121.532573
  },
  "06dae847-bd48-4f97-9e13-8e5015f55520": {
    "name": "微風南京-金仙滷肉飯",
    "district": "松山區",
    "address": "臺北市松山區南京東路三段337號1至4樓及地下1，2樓",
    "earlyBird": null,
    "lat": 25.0520316,
    "lng": 121.5481058
  },
  "06de0e42-50b6-46f3-ba60-82cf7f17aede": {
    "name": "時代百貨-石頭科技-6452",
    "district": "信義區",
    "address": "臺北市信義區忠孝東路5段8號6樓",
    "earlyBird": null,
    "lat": 25.0408461,
    "lng": 121.5653962
  },
  "06e932c9-1976-4bf0-8992-458a505f81d3": {
    "name": "營養師農場",
    "district": "萬華區",
    "address": "臺北市萬華區日善里東園街４９號",
    "earlyBird": true,
    "lat": 25.0272086,
    "lng": 121.4959282
  },
  "06e9fd6d-6746-4838-a47d-8495213938e5": {
    "name": "吉兒龐克動漫日本服飾",
    "district": "萬華區",
    "address": "臺北市萬華區西寧南路70號3樓之10",
    "earlyBird": false,
    "lat": 25.043508,
    "lng": 121.505886
  },
  "06ef2ca6-9d07-4219-8f04-5dd2aeefbc06": {
    "name": "天鵝桌遊館",
    "district": "文山區",
    "address": "臺北市文山區萬年里羅斯福路五段１７０巷３７號",
    "earlyBird": true,
    "lat": 25.004543,
    "lng": 121.5365838
  },
  "06f2e90c-a563-4748-b226-a5a14ce61b2d": {
    "name": "新光三越A11-點睛品",
    "district": "信義區",
    "address": "臺北市信義區松壽路１１號",
    "earlyBird": null,
    "lat": 25.0367103,
    "lng": 121.5672369
  },
  "06f473e0-f456-40ba-bcab-b25950357d0c": {
    "name": "ATT e Life 大直店_熊一二",
    "district": "中山區",
    "address": "臺北市中山區敬業三路123號3樓",
    "earlyBird": null,
    "lat": 25.0810846,
    "lng": 121.5554643
  },
  "06f6ad4a-a849-45d5-a095-6d8b1662daf3": {
    "name": "摩曼頓企業股份有限公司中華門市",
    "district": "萬華區",
    "address": "臺北市萬華區萬壽里中華路１段９４號",
    "earlyBird": false,
    "lat": 25.0463319,
    "lng": 121.5091872
  },
  "06f8490c-aeb1-40c1-8ce1-bbe6b8ae70b0": {
    "name": "新光三越信義新天地A4-榆果",
    "district": "信義區",
    "address": "臺北市信義區興雅里松高路１９號地下１樓至地下３樓﹒１樓至６樓",
    "earlyBird": null,
    "lat": 25.0396539,
    "lng": 121.5667018
  },
  "06f983dd-b5b6-40a7-b8c5-c1c0b063e988": {
    "name": "台灣塩酥雞西門直營店",
    "district": "萬華區",
    "address": "臺北市萬華區萬壽里中華路１段１３８號",
    "earlyBird": false,
    "lat": 25.0463319,
    "lng": 121.5091872
  },
  "07023bbe-46f4-4144-ba20-57d8f0ab043b": {
    "name": "微風場站店-黑毛屋",
    "district": "中正區",
    "address": "臺北市中正區北平西路3號2樓、1樓及地下1樓",
    "earlyBird": null,
    "lat": 25.0475172,
    "lng": 121.5159125
  },
  "0702bc1c-f1e0-408d-934f-e031dfb30a98": {
    "name": "亞瑟王數位企業社",
    "district": "士林區",
    "address": "臺北市士林區仁勇里文林路１８０號",
    "earlyBird": true,
    "lat": 25.0895869,
    "lng": 121.5270415
  },
  "070ccc99-470a-472a-ae53-38fa97280259": {
    "name": "小里子海鮮餐廳",
    "district": "大同區",
    "address": "臺北市大同區保安里哈密街９３號",
    "earlyBird": true,
    "lat": 25.0730228,
    "lng": 121.5145336
  },
  "072ea5a0-a038-4173-ac10-4c1c746a4cf6": {
    "name": "新光三越A8-CILO CALA",
    "district": "信義區",
    "address": "臺北市信義區松高路12號",
    "earlyBird": null,
    "lat": 25.0382241,
    "lng": 121.5667909
  },
  "0735d575-f6d8-4cb7-a135-227d13e9e155": {
    "name": "屈臣氏南京東店",
    "district": "中山區",
    "address": "臺北市中山區台北市中山區南京東路三段125號",
    "earlyBird": null,
    "lat": 25.052161,
    "lng": 121.5402163
  },
  "07366f33-3918-461a-a849-9ae8581d89e8": {
    "name": "華山文創園區-森高砂咖啡華山實驗室",
    "district": "中正區",
    "address": "臺北市中正區八德路一段1號",
    "earlyBird": false,
    "lat": 25.0432788,
    "lng": 121.5293005
  },
  "07387215-7a85-4dbb-9982-72e22dcffe87": {
    "name": "新光三越信義新天地A4-SEIKO",
    "district": "信義區",
    "address": "臺北市信義區興雅里松高路１９號地下１樓至地下３樓﹒１樓至６樓",
    "earlyBird": null,
    "lat": 25.0396539,
    "lng": 121.5667018
  },
  "074adaad-8d5e-4e4c-98f0-47655358863f": {
    "name": "燦坤實業股份有限公司復北分公司",
    "district": "松山區",
    "address": "臺北市松山區民有里復興北路３２５號１樓",
    "earlyBird": false,
    "lat": 25.059537,
    "lng": 121.544478
  },
  "07541437-b169-4438-8113-cb8b18ce3d41": {
    "name": "京站-PEPPER'S",
    "district": "大同區",
    "address": "台北市大同區承德路一段一號",
    "earlyBird": null,
    "lat": 25.0504459,
    "lng": 121.5170168
  },
  "0754b737-b23f-458d-8390-3e80086dd9ac": {
    "name": "清白藥局",
    "district": "內湖區",
    "address": "臺北市內湖區五分里東湖路１０８號",
    "earlyBird": true,
    "lat": 25.0682956,
    "lng": 121.6155941
  },
  "07577772-4366-44ba-832e-615304e8dd3c": {
    "name": "華山文創園區-未來市輕食",
    "district": "中正區",
    "address": "臺北市中正區八德路一段1號",
    "earlyBird": null,
    "lat": 25.0432788,
    "lng": 121.5293005
  },
  "07695d78-f926-4bc6-aa7a-d4df34979a71": {
    "name": "前傳手作皮革",
    "district": "大安區",
    "address": "臺北市大安區錦安里金山南路２段１４１巷２０號",
    "earlyBird": true,
    "lat": 25.0294171,
    "lng": 121.527592
  },
  "07744d66-adc7-485d-abbd-53abb9721f0d": {
    "name": "新光三越A9-APM MONACO-長進",
    "district": "信義區",
    "address": "臺北市信義區西村里松壽路９號",
    "earlyBird": null,
    "lat": 25.0363104,
    "lng": 121.5668588
  },
  "07772571-9c4a-4922-888d-aacd7cf489ea": {
    "name": "遠東SOGO忠孝館-寶瑪襪怕",
    "district": "大安區",
    "address": "臺北市大安區忠孝東路4段45號8F",
    "earlyBird": null,
    "lat": 25.0421272,
    "lng": 121.5449393
  },
  "077d0b4c-506f-4df7-85a2-206763d08583": {
    "name": "大葉高島屋-Timberland",
    "district": "士林區",
    "address": "臺北市士林區忠誠路二段55號",
    "earlyBird": null,
    "lat": 25.1118523,
    "lng": 121.5314695
  },
  "07801467-cda1-45c5-9011-193041159f08": {
    "name": "藝碟小菜有限公司",
    "district": "大安區",
    "address": "臺北市大安區德安里四維路６巷２２號",
    "earlyBird": true,
    "lat": 25.0370931,
    "lng": 121.5475835
  },
  "078ad5d4-4cf7-4635-b3ec-d13c994cb27c": {
    "name": "遠東SOGO復興館-mia mia",
    "district": "大安區",
    "address": "臺北市大安區忠孝東路3段300號5F",
    "earlyBird": null,
    "lat": 25.0410553,
    "lng": 121.5431553
  },
  "0799e891-3f3f-43ac-87c4-4d0b1249b66d": {
    "name": "ATT 4 FUN 信義店-QB HOUSE",
    "district": "信義區",
    "address": "臺北市信義區松壽路12號",
    "earlyBird": null,
    "lat": 25.0353886,
    "lng": 121.5660759
  },
  "079b6aaa-7477-4676-9e90-bebfa0b2418e": {
    "name": "遠東SOGO復興館-GRAFF",
    "district": "大安區",
    "address": "臺北市大安區忠孝東路3段300號2F",
    "earlyBird": null,
    "lat": 25.0408932,
    "lng": 121.5432417
  },
  "079ba1ac-0ea4-4e37-b450-c1bc99828c46": {
    "name": "裕興寢具棉被店",
    "district": "文山區",
    "address": "臺北市文山區萬有里興隆路１段２２０號",
    "earlyBird": true,
    "lat": 24.999017,
    "lng": 121.5453128
  },
  "079bb6b4-f831-418a-97a1-cfcddfcbac64": {
    "name": "麗晶精品-Boucheron",
    "district": "中山區",
    "address": "臺北市中山區中山北路二段39巷3號",
    "earlyBird": false,
    "lat": 25.0541575,
    "lng": 121.5242879
  },
  "07af6398-7565-4da3-9930-01c59f5aed90": {
    "name": "台灣華歌爾股份有限公司士林分公司",
    "district": "士林區",
    "address": "臺北市士林區中正路２４６號１樓",
    "earlyBird": false,
    "lat": 25.0952962,
    "lng": 121.5250228
  },
  "07b0a678-5dc2-47f3-b6fa-f33f476e3de9": {
    "name": "I'm PASTA 和平店",
    "district": "大安區",
    "address": "臺北市大安區龍淵里和平東路２段１１８巷５０號",
    "earlyBird": false,
    "lat": 25.0225435,
    "lng": 121.5427997
  },
  "07b0fe62-9b26-406f-87fb-e15d3d21a018": {
    "name": "京站-waltz",
    "district": "大同區",
    "address": "台北市大同區承德路一段一號",
    "earlyBird": null,
    "lat": 25.0504459,
    "lng": 121.5170168
  },
  "07b5381e-1f5a-4d5a-93e0-7e1c1d471f73": {
    "name": "遠東SOGO忠孝館-FLORIS",
    "district": "大安區",
    "address": "臺北市大安區忠孝東路4段45號2F",
    "earlyBird": null,
    "lat": 25.0419194,
    "lng": 121.5447742
  },
  "07c0adb3-1dcf-469a-92d5-8f588d97738c": {
    "name": "台北橋孔魯肉飯",
    "district": "大同區",
    "address": "臺北市大同區隆和里昌吉街１５６號",
    "earlyBird": true,
    "lat": 25.0658687,
    "lng": 121.5129041
  },
  "07c5c84f-33b2-4228-9d16-68172c812a54": {
    "name": "TierraCasa風土與人有限公司",
    "district": "內湖區",
    "address": "臺北市內湖區金瑞里金龍路１７７號",
    "earlyBird": true,
    "lat": 25.086785,
    "lng": 121.588648
  },
  "07c5f7aa-7fdd-42ff-b885-de87147a21f1": {
    "name": "三創生活園區_hengstyle恆隆行",
    "district": "中正區",
    "address": "臺北市中正區市民大道三段2號",
    "earlyBird": null,
    "lat": 25.0454246,
    "lng": 121.5313973
  },
  "07c5fe32-0ea7-4a80-81c4-391c0466ae38": {
    "name": "鋒益家電有限公司",
    "district": "信義區",
    "address": "臺北市信義區惠安里吳興街３５９-３號１樓",
    "earlyBird": true,
    "lat": 25.0260548,
    "lng": 121.5664086
  },
  "07c85dfd-5da8-41dd-b010-4bebb0f8b60a": {
    "name": "鬍鬚張股份有限公司南門分公司",
    "district": "中正區",
    "address": "臺北市中正區南門里延平南路１６１號",
    "earlyBird": null,
    "lat": 25.0351834,
    "lng": 121.5076994
  },
  "07c8d407-e679-4c29-8687-25600b32d934": {
    "name": "新光三越天母店二館-法雅客租賃",
    "district": "士林區",
    "address": "臺北市士林區天福里忠誠路２段２００號",
    "earlyBird": null,
    "lat": 25.1173343,
    "lng": 121.5338781
  },
  "07dc1fc4-c4e6-4946-8c08-7be192fd38c3": {
    "name": "麥當勞台北莊敬",
    "district": "信義區",
    "address": "臺北市信義區莊敬路475號1樓",
    "earlyBird": false,
    "lat": 25.0268661,
    "lng": 121.5682139
  },
  "07e66e12-fe75-4c64-81ea-011034119d63": {
    "name": "新光三越A11-APPLE",
    "district": "信義區",
    "address": "臺北市信義區松壽路１１號",
    "earlyBird": null,
    "lat": 25.0367103,
    "lng": 121.5672369
  },
  "07ec0d53-84a7-4952-9cd9-f7206360dfc7": {
    "name": "新光三越A8-馥御牛肉干",
    "district": "信義區",
    "address": "臺北市信義區松高路12號",
    "earlyBird": null,
    "lat": 25.0382241,
    "lng": 121.5667909
  },
  "07ed88d4-f7e0-4298-ba97-922b6af71154": {
    "name": "寶島眼鏡內湖成功路分公司",
    "district": "內湖區",
    "address": "臺北市內湖區成功路四段55號1樓",
    "earlyBird": null,
    "lat": 25.0816791,
    "lng": 121.5921867
  },
  "0801b65a-1862-43f4-bd2d-ebfaa6285df6": {
    "name": "ABV加勒比海餐酒館",
    "district": "大安區",
    "address": "臺北市大安區敦化南路一段233巷61號",
    "earlyBird": true,
    "lat": 25.0404817,
    "lng": 121.5524291
  },
  "080a2704-e8c7-4e49-8d9e-cc1272fbb6f0": {
    "name": "遠東SOGO復興館-La Trinitaine法國布列塔尼酥餅",
    "district": "大安區",
    "address": "臺北市大安區忠孝東路3段300號B3",
    "earlyBird": null,
    "lat": 25.041211,
    "lng": 121.5432512
  },
  "0810aba6-e4f1-426d-98d7-0e9267c7c1c8": {
    "name": "京站-LUSH",
    "district": "大同區",
    "address": "臺北市大同區承德路一段1號",
    "earlyBird": null,
    "lat": 25.0492915,
    "lng": 121.5172486
  },
  "0819d6f6-cf33-44a6-b64c-8dcec2b0ddd4": {
    "name": "遠百台北寶慶店-喬山",
    "district": "中正區",
    "address": "臺北市中正區寶慶路32號8F ",
    "earlyBird": null,
    "lat": 25.0414461,
    "lng": 121.5090757
  },
  "08235336-df97-4a42-8b2b-3125e821769c": {
    "name": "采石圖書事業有限公司",
    "district": "中正區",
    "address": "臺北市中正區南昌路一段59巷7號1樓",
    "earlyBird": true,
    "lat": 25.031312,
    "lng": 121.517743
  },
  "08367a52-45ba-4579-ab0d-ec9ba66cfc8d": {
    "name": "ATT e Life 大直店_tokuyo",
    "district": "中山區",
    "address": "臺北市中山區敬業三路123號3樓",
    "earlyBird": null,
    "lat": 25.0810846,
    "lng": 121.5554643
  },
  "0840b97c-2883-4cd1-8739-07235c5d0e25": {
    "name": "京站-CACO",
    "district": "大同區",
    "address": "台北市大同區承德路一段一號",
    "earlyBird": null,
    "lat": 25.0504459,
    "lng": 121.5170168
  },
  "08416250-9d01-42d3-804a-86bc0ad19c85": {
    "name": "時代百貨-LANCOME-1213",
    "district": "信義區",
    "address": "臺北市信義區忠孝東路5段8號1樓",
    "earlyBird": null,
    "lat": 25.0406564,
    "lng": 121.5654313
  },
  "08605307-ed6d-424c-ac2c-89cbab429d17": {
    "name": "遠東SOGO忠孝館-TEMPUR",
    "district": "大安區",
    "address": "臺北市大安區忠孝東路4段45號9F",
    "earlyBird": null,
    "lat": 25.0421272,
    "lng": 121.5449393
  },
  "0867e12f-9c2b-4237-a012-4aec17401f97": {
    "name": "敦煌書局股份有限公司內湖店",
    "district": "內湖區",
    "address": "臺北市內湖區湖元里堤頂大道１段２０７號",
    "earlyBird": false,
    "lat": 25.056549,
    "lng": 121.5743656
  },
  "086f24fd-676e-4435-a244-cc141b710302": {
    "name": "野草居食屋",
    "district": "中正區",
    "address": "臺北市中正區同安街28巷1號",
    "earlyBird": false,
    "lat": 25.0248237,
    "lng": 121.5217016
  },
  "0871cced-e50c-42e7-bb38-3dc56a8d5616": {
    "name": "微風廣場店-Snow Fox",
    "district": "松山區",
    "address": "臺北市松山區復興南路一段39號",
    "earlyBird": null,
    "lat": 25.0461572,
    "lng": 121.5448303
  },
  "08722ffd-e774-47b9-89a9-501b9f5d8a54": {
    "name": "新光三越A8-PASSIONATA",
    "district": "信義區",
    "address": "臺北市信義區松高路12號",
    "earlyBird": null,
    "lat": 25.0382241,
    "lng": 121.5667909
  },
  "08754cc0-ed54-41d6-b99e-f298c7fe67c4": {
    "name": "躍獅雙蓮藥局",
    "district": "大同區",
    "address": "臺北市大同區民權里涼州街４號",
    "earlyBird": false,
    "lat": 25.0608061,
    "lng": 121.5156796
  },
  "087828d4-3b5e-4487-a9e7-57ce47ad7d83": {
    "name": "時代百貨-FILA-4410",
    "district": "信義區",
    "address": "臺北市信義區忠孝東路5段8號4樓",
    "earlyBird": null,
    "lat": 25.040846,
    "lng": 121.565396
  },
  "0879d5ec-8243-4626-ab4e-d2c92e00fad1": {
    "name": "TAIPEI101–秋布–T0147",
    "district": "信義區",
    "address": "臺北市信義區市府路45號",
    "earlyBird": null,
    "lat": 25.0341222,
    "lng": 121.5640212
  },
  "087d8828-2920-429e-ac6f-1ec31bcb95ea": {
    "name": "京站-Urban Units",
    "district": "大同區",
    "address": "台北市大同區承德路一段一號",
    "earlyBird": null,
    "lat": 25.0504459,
    "lng": 121.5170168
  },
  "088535e2-8d96-4818-b9c9-8341819534a3": {
    "name": "Lazy Pasta 慵懶義式廚房文山萬芳店",
    "district": "文山區",
    "address": "臺北市文山區興隆路三段36巷16弄2號1樓",
    "earlyBird": false,
    "lat": 24.9996474,
    "lng": 121.5549919
  },
  "0892521d-a67a-416a-8cfc-da9e31e5dd42": {
    "name": "ECCO 南東店",
    "district": "松山區",
    "address": "臺北市松山區南京東路四段1號1樓",
    "earlyBird": false,
    "lat": 25.0519741,
    "lng": 121.5495308
  },
  "0892e745-07e7-40fb-a05a-d9885556bc41": {
    "name": "微風三總-樂法",
    "district": "內湖區",
    "address": "臺北市內湖區成功路2段325號",
    "earlyBird": null,
    "lat": 25.0717029,
    "lng": 121.5900721
  },
  "089407f9-0d1a-4605-9309-937c01ed3e06": {
    "name": "醇一",
    "district": "大安區",
    "address": "臺北市大安區德安里仁愛路４段４８巷３０號",
    "earlyBird": true,
    "lat": 25.0363721,
    "lng": 121.5469783
  },
  "0894275f-7242-4a30-8772-e684b19980ee": {
    "name": "棉花田生機園地-忠孝216巷",
    "district": "大安區",
    "address": "臺北市大安區忠孝東路四段216巷33弄11號",
    "earlyBird": null,
    "lat": 25.0395402,
    "lng": 121.5537024
  },
  "0897cc1c-5843-4189-9b66-6f20f7225c41": {
    "name": "CHIT CHAT Cafe",
    "district": "松山區",
    "address": "臺北市松山區吉祥里南京東路５段３８號１樓",
    "earlyBird": false,
    "lat": 25.0512437,
    "lng": 121.5594757
  },
  "089942bd-17b5-4d23-890e-56eac0bd7859": {
    "name": "Qburger 萬華青年店",
    "district": "萬華區",
    "address": "臺北市萬華區青年路140號1樓",
    "earlyBird": false,
    "lat": 25.0218246,
    "lng": 121.5024367
  },
  "089a7827-f7b7-47bc-a35e-6b72a7373252": {
    "name": "哈德威運動用品有限公司",
    "district": "中正區",
    "address": "臺北市中正區水源里汀州路３段１２２號１樓",
    "earlyBird": true,
    "lat": 25.0140232,
    "lng": 121.5335836
  },
  "089e4f0c-fc41-4051-a8ac-50cce31f0050": {
    "name": "大葉高島屋-agnes'bsport b.",
    "district": "士林區",
    "address": "臺北市士林區忠誠路二段55號",
    "earlyBird": null,
    "lat": 25.1118523,
    "lng": 121.5314695
  },
  "089f3c90-d68d-4391-a2bf-3b2e2cd182fe": {
    "name": "屈臣氏木新店",
    "district": "文山區",
    "address": "臺北市文山區台北市文山區木新路三段119，121號",
    "earlyBird": null,
    "lat": 24.9818768,
    "lng": 121.5622118
  },
  "08a85db6-66ef-4435-af03-8c911b93c9a6": {
    "name": "咖啡燕咖啡館",
    "district": "北投區",
    "address": "臺北市北投區榮華里天母西路１３２-１３號",
    "earlyBird": true,
    "lat": 25.118646,
    "lng": 121.522036
  },
  "08aaf4ea-11a6-44f4-b265-48575abebab8": {
    "name": "大葉高島屋-順儷藥妝",
    "district": "士林區",
    "address": "臺北市士林區忠誠路二段55號",
    "earlyBird": null,
    "lat": 25.1118523,
    "lng": 121.5314695
  },
  "08ab7b3e-e93c-468c-af23-f9cf759de8ca": {
    "name": "郭元益食品股份有限公司中山分公司",
    "district": "中山區",
    "address": "臺北市中山區民安里中山北路２段３４號",
    "earlyBird": false,
    "lat": 25.0543024,
    "lng": 121.522452
  },
  "08b8481a-0ebf-4e28-a9bb-98795024c9af": {
    "name": "遠百信義A13-四川吳抄手",
    "district": "信義區",
    "address": "臺北市信義區松仁路58號4樓",
    "earlyBird": null,
    "lat": 25.0367849,
    "lng": 121.5679566
  },
  "08be0b88-60f7-4581-9d2a-8a69ddeaeda7": {
    "name": "天龍香茅油商行",
    "district": "中正區",
    "address": "臺北市中正區市民大道１段１００號台北地下街Ｓ４５－１號",
    "earlyBird": true,
    "lat": 25.0495017,
    "lng": 121.5136386
  },
  "08e45ff1-812b-4b91-88d7-c6511a6fff70": {
    "name": "遠百台北寶慶店-kiehl's                       ",
    "district": "中正區",
    "address": "臺北市中正區寶慶路32號1F ",
    "earlyBird": null,
    "lat": 25.0414461,
    "lng": 121.5090757
  },
  "0912754e-6921-44cd-abbc-d57cef0b261c": {
    "name": "微風信義店-Maison Kayser",
    "district": "信義區",
    "address": "臺北市信義區忠孝東路5段68號1-4樓、44至46樓及地下2樓",
    "earlyBird": null,
    "lat": 25.0405444,
    "lng": 121.5667909
  },
  "0914b804-1286-432f-a388-49b0e74e5362": {
    "name": "遠東SOGO敦化館-會安越南宮廷火鍋",
    "district": "大安區",
    "address": "臺北市大安區敦化南路1段246號B2F",
    "earlyBird": null,
    "lat": 25.0401203,
    "lng": 121.5481393
  },
  "0915a7c5-47a9-4689-a6b5-af32a0d12452": {
    "name": "微風松高-饗泰多",
    "district": "信義區",
    "address": "臺北市信義區松高路16號1-4樓及地下1-5樓",
    "earlyBird": null,
    "lat": 25.0387076,
    "lng": 121.56729
  },
  "091b3aa8-38f6-48fe-9e05-4d935a566a9e": {
    "name": "新光三越A9-迪生亞洲-迪生亞洲",
    "district": "信義區",
    "address": "臺北市信義區西村里松壽路９號",
    "earlyBird": null,
    "lat": 25.0363104,
    "lng": 121.5668588
  },
  "0922c36d-9ac8-4abb-b98b-6e1d0c33361a": {
    "name": "新光三越A9-先聲數位",
    "district": "信義區",
    "address": "臺北市信義區西村里松壽路９號",
    "earlyBird": null,
    "lat": 25.0363104,
    "lng": 121.5668588
  },
  "092652dc-2299-4bf2-b68a-fd0e01359712": {
    "name": "微風信義店-TSUKUMI",
    "district": "信義區",
    "address": "臺北市信義區忠孝東路5段68號1-4樓、44至46樓及地下2樓",
    "earlyBird": null,
    "lat": 25.0405444,
    "lng": 121.5667909
  },
  "09290776-a887-4b10-8c61-4988dcd87f91": {
    "name": "東鋪有限公司台北永吉分公司",
    "district": "南港區",
    "address": "臺北市南港區合成里永吉路５４２號１樓",
    "earlyBird": false,
    "lat": 25.0451399,
    "lng": 121.581499
  },
  "092d1613-af66-4579-ab77-0bf6326dddd9": {
    "name": "屈臣氏林森北店",
    "district": "中山區",
    "address": "臺北市中山區台北市中山區林森北路131號1F",
    "earlyBird": null,
    "lat": 25.050958,
    "lng": 121.5252915
  },
  "092f6e8c-594e-469c-935f-ae51215e0e87": {
    "name": "青青手工饅頭店",
    "district": "松山區",
    "address": "臺北市松山區介壽里民生東路５段３６巷６弄１號",
    "earlyBird": true,
    "lat": 25.0577413,
    "lng": 121.5598146
  },
  "0938982d-ff68-4d49-92de-8e9d720dd1d6": {
    "name": "潮元素  中山一店",
    "district": "中山區",
    "address": "臺北市中山區長安西路52-1號 B1中山地下街 A27店",
    "earlyBird": false,
    "lat": 25.0500519,
    "lng": 121.5201925
  },
  "0948d738-c904-43da-809f-e091e83daee7": {
    "name": "台朔環保科技股份有限公司",
    "district": "松山區",
    "address": "臺北市松山區精忠里敦化北路201之24號5樓",
    "earlyBird": false,
    "lat": 25.0565683,
    "lng": 121.5497916
  },
  "094a1576-c1b3-4639-ba2a-c79f4bfbc0fe": {
    "name": "時代百貨台北店1樓化妝品1號綜合櫃",
    "district": "信義區",
    "address": "臺北市信義區忠孝東路5段8號B2樓",
    "earlyBird": null,
    "lat": 25.0408461,
    "lng": 121.5653962
  },
  "094b12f3-9bbd-4300-8790-1b4fd5165134": {
    "name": "小春園商店",
    "district": "大同區",
    "address": "臺北市大同區朝陽里南京西路１４９號１樓",
    "earlyBird": true,
    "lat": 25.054126,
    "lng": 121.5136414
  },
  "094d5ea8-f49c-4d9a-bc2c-817afa0f9715": {
    "name": "愛茉莉太平洋股份有限公司台北信義威秀旗艦店分公司",
    "district": "信義區",
    "address": "臺北市信義區西村里松壽路１８號１樓",
    "earlyBird": false,
    "lat": 25.0354882,
    "lng": 121.5667949
  },
  "09522f35-ab87-45a6-8d8f-fc7cfa7f1268": {
    "name": "大葉高島屋-大河屋",
    "district": "士林區",
    "address": "臺北市士林區忠誠路二段55號",
    "earlyBird": null,
    "lat": 25.1118523,
    "lng": 121.5314695
  },
  "095d92f8-36bf-4b77-8027-5eae31f51896": {
    "name": "遠東SOGO忠孝館-TESCOM",
    "district": "大安區",
    "address": "臺北市大安區忠孝東路4段45號9F",
    "earlyBird": null,
    "lat": 25.0421272,
    "lng": 121.5449393
  },
  "095fdb9b-3541-46dd-bb3b-cd2b9ddcfc9e": {
    "name": "新光三越天母店一館-GDC",
    "district": "士林區",
    "address": "臺北市士林區天福里天母東路６８號",
    "earlyBird": null,
    "lat": 25.1178315,
    "lng": 121.5338781
  },
  "0964a5a2-5ee8-4ded-b315-722bcef91a58": {
    "name": "新光三越A11-BIOTHERM",
    "district": "信義區",
    "address": "臺北市信義區松壽路１１號",
    "earlyBird": null,
    "lat": 25.0367103,
    "lng": 121.5672369
  },
  "0969ce17-304e-4ae8-8b34-b730cb323203": {
    "name": "大葉高島屋-PGA TOUR",
    "district": "士林區",
    "address": "臺北市士林區忠誠路二段55號",
    "earlyBird": null,
    "lat": 25.1118523,
    "lng": 121.5314695
  },
  "096ea5ba-612a-452a-b4c1-67fde72d9f96": {
    "name": "紀伊國屋書店（股）公司",
    "district": "松山區",
    "address": "臺北市松山區復興南路一段39號5F",
    "earlyBird": false,
    "lat": 25.0461572,
    "lng": 121.5448303
  },
  "097a4eb5-8532-42a5-b0fa-9ffe3f6bda4c": {
    "name": "砸鍋賣鐵小吃店",
    "district": "中正區",
    "address": "臺北市中正區漢口街１段３５號２樓",
    "earlyBird": true,
    "lat": 25.0451044,
    "lng": 121.5112043
  },
  "097a5c1c-4599-4755-ab1a-a92752b10fb2": {
    "name": "大葉高島屋-Meissen",
    "district": "士林區",
    "address": "臺北市士林區忠誠路二段55號",
    "earlyBird": null,
    "lat": 25.1118523,
    "lng": 121.5314695
  },
  "0985ad6c-8cc0-4c84-94d8-1b1916ec6f23": {
    "name": "美國冰淇淋咖啡館",
    "district": "信義區",
    "address": "臺北市信義區仁愛路四段505號(光復南路306號對面)",
    "earlyBird": false,
    "lat": 25.0377878,
    "lng": 121.5579136
  },
  "0991df72-71a4-4ca9-aecd-9de39aee7aab": {
    "name": "大葉高島屋-BEEN TEEN（嬪婷）",
    "district": "士林區",
    "address": "臺北市士林區忠誠路二段55號",
    "earlyBird": null,
    "lat": 25.1118523,
    "lng": 121.5314695
  },
  "099392b4-3f1f-473f-8559-bd556f4ed829": {
    "name": "啓美藥師藥局",
    "district": "中山區",
    "address": "臺北市中山區松江里錦州街２８２號",
    "earlyBird": true,
    "lat": 25.060215,
    "lng": 121.5352719
  },
  "099629a6-fdfa-4d6f-98b9-ff9428738690": {
    "name": "三創生活園區_Oppo",
    "district": "中正區",
    "address": "臺北市中正區市民大道三段2號",
    "earlyBird": null,
    "lat": 25.0454246,
    "lng": 121.5313973
  },
  "099e8fdb-03fb-44d7-93e6-6c2f28137a51": {
    "name": "新光三越A8-喝采",
    "district": "信義區",
    "address": "臺北市信義區松高路12號",
    "earlyBird": null,
    "lat": 25.0382241,
    "lng": 121.5667909
  },
  "09a26a81-64d6-4b22-a16e-3dabaac9b895": {
    "name": "微風南京-回家睡覺GO HOME & SLEEP",
    "district": "松山區",
    "address": "臺北市松山區南京東路三段337號1至4樓及地下1，2樓",
    "earlyBird": null,
    "lat": 25.0520316,
    "lng": 121.5481058
  },
  "09a5837e-042e-484b-ae6c-7af8f3736edd": {
    "name": "apple203士林後港店",
    "district": "士林區",
    "address": "臺北市士林區後港街133號",
    "earlyBird": true,
    "lat": 25.086708,
    "lng": 121.5217586
  },
  "09b0e5e5-15d9-4420-b737-e11a92f8775f": {
    "name": "新光三越A8-PGA",
    "district": "信義區",
    "address": "臺北市信義區松高路12號",
    "earlyBird": null,
    "lat": 25.0382241,
    "lng": 121.5667909
  },
  "09b554c1-0ec5-48b0-80f3-8790d9588206": {
    "name": "大上海生煎包",
    "district": "士林區",
    "address": "臺北市士林區文林路９９號１樓後棟",
    "earlyBird": true,
    "lat": 25.0879422,
    "lng": 121.5260466
  },
  "09bfe27b-786b-4b26-ae06-1d24080de2b7": {
    "name": "新光三越A9-BGREEN-就是綠",
    "district": "信義區",
    "address": "臺北市信義區西村里松壽路９號",
    "earlyBird": null,
    "lat": 25.0363104,
    "lng": 121.5668588
  },
  "09c1f138-bd73-4997-8d6e-ca7791a0ed08": {
    "name": "金山客家小館創始店",
    "district": "松山區",
    "address": "臺北市松山區南京東路５段２５０巷２弄５號１樓",
    "earlyBird": false,
    "lat": 25.0508807,
    "lng": 121.5664035
  },
  "09c444ea-6c23-4d86-8a11-7c574b399bc0": {
    "name": "露比的點心茶會",
    "district": "內湖區",
    "address": "臺北市內湖區金瑞里內湖路３段３２９巷１０弄１０號３樓",
    "earlyBird": true,
    "lat": 25.0879881,
    "lng": 121.5847255
  },
  "09c775b4-9ac7-4710-9c22-1d0777f9d549": {
    "name": "遠東SOGO敦化館-老長壽",
    "district": "大安區",
    "address": "臺北市大安區敦化南路1段246號B2F",
    "earlyBird": null,
    "lat": 25.0401203,
    "lng": 121.5481393
  },
  "09cf9c74-6943-4409-a2a3-4b363a89a1e8": {
    "name": "遠東SOGO忠孝館-MOONSTAR",
    "district": "大安區",
    "address": "臺北市大安區忠孝東路4段45號5F",
    "earlyBird": null,
    "lat": 25.0421272,
    "lng": 121.5449393
  },
  "09d22275-c94c-4518-b284-4ded8e38f1da": {
    "name": "微風台北車站-open it.",
    "district": "中正區",
    "address": "臺北市中正區北平西路3號2樓、1樓及地下1樓",
    "earlyBird": null,
    "lat": 25.0475172,
    "lng": 121.5159125
  },
  "09dbb33a-b31f-4bc3-8664-e9504a4aeecb": {
    "name": "HOKE OKE 中山晴光店",
    "district": "中山區",
    "address": "臺北市中山區恆安里雙城街１７巷１４號１樓",
    "earlyBird": false,
    "lat": 25.0644411,
    "lng": 121.5248585
  },
  "09df768e-0692-41a7-be2a-6e42b8d1c4cb": {
    "name": "早寧午食",
    "district": "士林區",
    "address": "臺北市士林區福國路34號",
    "earlyBird": true,
    "lat": 25.102312,
    "lng": 121.524215
  },
  "09e0b2f5-9a09-45ec-a802-451a2d214065": {
    "name": "微風台北車站-OWNDAYS",
    "district": "中正區",
    "address": "臺北市中正區北平西路3號2樓、1樓及地下1樓",
    "earlyBird": null,
    "lat": 25.0475172,
    "lng": 121.5159125
  },
  "09ef1dd1-b313-4447-a575-9412bb30e6cc": {
    "name": "新光三越A8-KEDS",
    "district": "信義區",
    "address": "臺北市信義區松高路12號",
    "earlyBird": null,
    "lat": 25.0382241,
    "lng": 121.5667909
  },
  "09f3b876-4869-4b25-9c97-c5302d959e9c": {
    "name": "時代百貨台北店1樓化妝品2號綜合櫃",
    "district": "信義區",
    "address": "臺北市信義區忠孝東路5段8號B2樓",
    "earlyBird": null,
    "lat": 25.0408461,
    "lng": 121.5653962
  },
  "09f8c0ed-dbfd-419f-8b05-7a28224f8ff1": {
    "name": "新東陽-林森店",
    "district": "中山區",
    "address": "臺北市中山區中山里林森北路２８２號",
    "earlyBird": false,
    "lat": 25.0556443,
    "lng": 121.5253246
  },
  "09f9da3f-fd99-4578-8de3-887590144abc": {
    "name": "寶島眼鏡延吉街分公司",
    "district": "大安區",
    "address": "臺北市大安區延吉街110之1號",
    "earlyBird": null,
    "lat": 25.0408037,
    "lng": 121.5545684
  },
  "0a0947de-3cf6-42ab-aeb6-464af8e58528": {
    "name": "躍獅南寧藥局",
    "district": "中正區",
    "address": "臺北市中正區南昌路一段81號",
    "earlyBird": false,
    "lat": 25.03059,
    "lng": 121.517834
  },
  "0a0aa046-bd5f-4fda-b587-7b79bdf60b95": {
    "name": "幸福肥計劃咖啡店",
    "district": "南港區",
    "address": "臺北市南港區南港里南港路一段１７１巷１６號１樓",
    "earlyBird": true,
    "lat": 25.0545912,
    "lng": 121.6130126
  },
  "0a0db590-b55d-43a8-a766-caac5527f420": {
    "name": "新光三越信義新天地A4-LEONARD",
    "district": "信義區",
    "address": "臺北市信義區松高路19號",
    "earlyBird": null,
    "lat": 25.0396539,
    "lng": 121.5667018
  },
  "0a1a4e2a-92d4-480d-960b-59954074faa8": {
    "name": "Mister Donut新捷站門市",
    "district": "中正區",
    "address": "臺北市中正區忠孝西路１段４９號B1",
    "earlyBird": false,
    "lat": 25.0460292,
    "lng": 121.5189853
  },
  "0a1fca69-5652-42e7-ba5c-68c9164a1aa7": {
    "name": "遠東SOGO忠孝館-李春枝",
    "district": "大安區",
    "address": "臺北市大安區忠孝東路4段45號4F",
    "earlyBird": null,
    "lat": 25.0421272,
    "lng": 121.5449393
  },
  "0a205b4e-33eb-4ef7-870c-9cd421aacf18": {
    "name": "爵林堅果坊",
    "district": "大安區",
    "address": "臺北市大安區永康街六巷10號",
    "earlyBird": false,
    "lat": 25.032584,
    "lng": 121.52935
  },
  "0a243a32-4704-4833-a495-38cacec60d21": {
    "name": "棉花田生機園地-莊敬",
    "district": "信義區",
    "address": "臺北市信義區莊敬路376號",
    "earlyBird": null,
    "lat": 25.0274719,
    "lng": 121.565076
  },
  "0a2e87c2-af96-4a2d-892f-99411f0e4350": {
    "name": "遠東SOGO天母館-美壽多",
    "district": "士林區",
    "address": "臺北市士林區中山北路6段77號B1",
    "earlyBird": null,
    "lat": 25.105306,
    "lng": 121.5245943
  },
  "0a2ed2bf-bc58-42db-b383-b77849c3e2fe": {
    "name": "新光三越A9-TAIWANIZE-耐製文創",
    "district": "信義區",
    "address": "臺北市信義區西村里松壽路９號",
    "earlyBird": null,
    "lat": 25.0363104,
    "lng": 121.5668588
  },
  "0a2f14d9-ca17-4718-a1a5-76208dca910e": {
    "name": "時代百貨-涼食帖-9566",
    "district": "信義區",
    "address": "臺北市信義區忠孝東路5段8號B2樓",
    "earlyBird": null,
    "lat": 25.0408461,
    "lng": 121.5653962
  },
  "0a305ea5-c013-4315-af52-8c02bdb374d9": {
    "name": "仨星馬餐館",
    "district": "大安區",
    "address": "臺北市大安區大安路一段223號",
    "earlyBird": true,
    "lat": 25.0346693,
    "lng": 121.5461919
  },
  "0a31fa27-852e-4027-8de6-5d60a3f7c55b": {
    "name": "林三藝國際行銷股份有限公司",
    "district": "大同區",
    "address": "臺北市大同區重慶北路二段58號",
    "earlyBird": false,
    "lat": 25.055748,
    "lng": 121.513815
  },
  "0a345fb4-4b2c-4a91-bbd9-51567fcbfddc": {
    "name": "台北晶華酒店-萬象廳(4F)",
    "district": "中山區",
    "address": "臺北市中山區中山北路二段39巷3號",
    "earlyBird": false,
    "lat": 25.0541575,
    "lng": 121.5242879
  },
  "0a347974-3f63-42c0-8a9f-3648286a6388": {
    "name": "遠東SOGO忠孝館-AIGLE",
    "district": "大安區",
    "address": "臺北市大安區忠孝東路4段45號10F",
    "earlyBird": null,
    "lat": 25.0421272,
    "lng": 121.5449393
  },
  "0a3b5e94-8914-4b79-974b-3127ca7d7ea8": {
    "name": "時代百貨-UNIQLO台灣優衣庫",
    "district": "信義區",
    "address": "臺北市信義區忠孝東路5段8號B1樓",
    "earlyBird": null,
    "lat": 25.0408461,
    "lng": 121.5653964
  },
  "0a3e4057-54e2-4c06-9d71-5246d2b81401": {
    "name": "新光三越A8-GARMIN",
    "district": "信義區",
    "address": "臺北市信義區松高路12號",
    "earlyBird": null,
    "lat": 25.0382241,
    "lng": 121.5667909
  },
  "0a40b00c-60fe-42a9-845a-24ef9fd9a666": {
    "name": "豐霸通信有限公司",
    "district": "中山區",
    "address": "臺北市中山區伊通街１０６巷１８號１樓",
    "earlyBird": true,
    "lat": 25.0539286,
    "lng": 121.533714
  },
  "0a466b16-e3d5-41d5-b178-d47e7b3c4d0e": {
    "name": "遠百信義A13-Roxy",
    "district": "信義區",
    "address": "臺北市信義區松仁路58號B2樓",
    "earlyBird": null,
    "lat": 25.0368519,
    "lng": 121.5677823
  },
  "0a4b7c6f-8df9-40c5-a740-be1ed594dd5d": {
    "name": "友蓁豆花店",
    "district": "中正區",
    "address": "臺北市中正區河堤里同安街63-2號",
    "earlyBird": true,
    "lat": 25.023943,
    "lng": 121.5217137
  },
  "0a55c8dd-b2d5-4c1d-a525-6ca94e48e12e": {
    "name": "JR東日本大飯店台北-鉑麗安",
    "district": "中山區",
    "address": "臺北市中山區南京東路三段135號",
    "earlyBird": false,
    "lat": 25.0522267,
    "lng": 121.5416762
  },
  "0a5f2a77-59e8-4394-aab6-8718940e1c01": {
    "name": "新光三越A8-精格",
    "district": "信義區",
    "address": "臺北市信義區松高路12號",
    "earlyBird": null,
    "lat": 25.0382241,
    "lng": 121.5667909
  },
  "0a65a47f-0d17-4ae3-bf44-9cc94afa6508": {
    "name": "怪獸小雞排-農安店",
    "district": "中山區",
    "address": "臺北市中山區晴光里農安街２９號１樓",
    "earlyBird": false,
    "lat": 25.0650058,
    "lng": 121.5248049
  },
  "0a66edb0-e9f5-4857-9859-87eea14236d7": {
    "name": "日昇運動休閒用品店",
    "district": "士林區",
    "address": "臺北市士林區中山北路七段113號B1",
    "earlyBird": true,
    "lat": 25.1223839,
    "lng": 121.5316631
  },
  "0a675664-3b37-4c50-8754-f17e2299c414": {
    "name": "新光三越天母店一館-WATPURE",
    "district": "士林區",
    "address": "臺北市士林區天福里天母東路６８號",
    "earlyBird": null,
    "lat": 25.1178315,
    "lng": 121.5338781
  },
  "0a6dc34c-c92d-4ea8-9710-e60c15fbddb4": {
    "name": "微風信義店-MFKP",
    "district": "信義區",
    "address": "臺北市信義區忠孝東路5段68號1-4樓、44至46樓及地下2樓",
    "earlyBird": null,
    "lat": 25.0405444,
    "lng": 121.5667909
  },
  "0a6e6f78-7b7b-4d85-a71c-6750d5c539c9": {
    "name": "遠東SOGO天母館1F-DAKS",
    "district": "士林區",
    "address": "臺北市士林區中山北路6段77號(1F)",
    "earlyBird": null,
    "lat": 25.105306,
    "lng": 121.5245943
  },
  "0a7bd9f4-b948-4b70-b8df-7dfcd22f0773": {
    "name": "微風廣場店-朵拉思蒂",
    "district": "松山區",
    "address": "臺北市松山區復興南路一段39號",
    "earlyBird": null,
    "lat": 25.0461572,
    "lng": 121.5448303
  },
  "0a7de2e4-f2a3-499c-a440-931af0aa1581": {
    "name": "六安堂參藥行有限公司",
    "district": "大同區",
    "address": "臺北市大同區永樂里迪化街１段７５號",
    "earlyBird": true,
    "lat": 25.0561161,
    "lng": 121.5100172
  },
  "0a7e8d89-9048-41e2-a3d4-148e8211a4d4": {
    "name": "遠東SOGO復興館-琉璃工房",
    "district": "大安區",
    "address": "臺北市大安區忠孝東路3段300號9F",
    "earlyBird": null,
    "lat": 25.0410553,
    "lng": 121.5431553
  },
  "0a82a2c5-2bdf-4e5e-a4c7-2805f3fd988f": {
    "name": "三創生活園區_Max Gear Model",
    "district": "中正區",
    "address": "臺北市中正區市民大道三段2號",
    "earlyBird": null,
    "lat": 25.0454246,
    "lng": 121.5313973
  },
  "0a852077-906b-4fe7-8a4c-7240ebeab58b": {
    "name": "新光三越A8-MYMY",
    "district": "信義區",
    "address": "臺北市信義區松高路12號",
    "earlyBird": null,
    "lat": 25.0382241,
    "lng": 121.5667909
  },
  "0a86615c-449e-4f81-bc64-84dc27e6dd20": {
    "name": "御真牛餐館",
    "district": "萬華區",
    "address": "臺北市萬華區壽德里萬大路３１５號１樓",
    "earlyBird": true,
    "lat": 25.02453,
    "lng": 121.500515
  },
  "0a8a56e4-8f36-4aaa-a4c6-25014f7098ea": {
    "name": "植宿餐飲股份有限公司",
    "district": "大安區",
    "address": "臺北市大安區仁慈里復興南路１段２５３巷１０號１樓",
    "earlyBird": true,
    "lat": 25.0367234,
    "lng": 121.5442206
  },
  "0a8a8dfe-c769-403e-911e-974f93cf2260": {
    "name": "遠百台北寶慶店-ScottishHous                  ",
    "district": "中正區",
    "address": "臺北市中正區寶慶路32號3F ",
    "earlyBird": null,
    "lat": 25.0414461,
    "lng": 121.5090757
  },
  "0a8e069e-b624-4445-b46d-aa56e02e1463": {
    "name": "微風場站店-大河屋",
    "district": "中正區",
    "address": "臺北市中正區北平西路3號2樓、1樓及地下1樓",
    "earlyBird": null,
    "lat": 25.0475172,
    "lng": 121.5159125
  },
  "0a95ea30-9ca9-4c68-8e62-783a6573c9d7": {
    "name": "東仕鐘錶精品有限公司",
    "district": "士林區",
    "address": "臺北市士林區仁勇里小北街１１號",
    "earlyBird": true,
    "lat": 25.0903466,
    "lng": 121.5263733
  },
  "0a96482b-57e3-4942-acff-fab3f98eca7f": {
    "name": "寶島眼鏡南京東興分公司",
    "district": "松山區",
    "address": "臺北市松山區南京東路五段271號",
    "earlyBird": null,
    "lat": 25.051595,
    "lng": 121.565637
  },
  "0a9a5fb5-e7de-41f5-bb9b-dfe964be8339": {
    "name": "高安生",
    "district": "文山區",
    "address": "臺北市文山區4F., No.1, Ln. 115, Sec. 2, Xiuming Rd., Wenshan Dist., Taipei City",
    "earlyBird": true,
    "lat": 24.99139,
    "lng": 121.5765728
  },
  "0a9cfbf6-d5ab-4428-9e01-79200a8113f3": {
    "name": "STAR 服飾 峨嵋A店",
    "district": "萬華區",
    "address": "臺北市萬華區西門里峨眉街２８號之２",
    "earlyBird": false,
    "lat": 25.0434132,
    "lng": 121.5067811
  },
  "0a9e12ed-b3f0-4529-9e18-6bc129bb94bd": {
    "name": "遠東SOGO忠孝館-Kinloch Anderson",
    "district": "大安區",
    "address": "臺北市大安區忠孝東路4段45號B1F",
    "earlyBird": null,
    "lat": 25.0421272,
    "lng": 121.5449393
  },
  "0aa29bbd-23c1-4da9-b63f-f875f3e9ced6": {
    "name": "大葉高島屋-BOBSON",
    "district": "士林區",
    "address": "臺北市士林區忠誠路二段55號",
    "earlyBird": null,
    "lat": 25.1118523,
    "lng": 121.5314695
  },
  "0aa8563f-f891-4141-9b84-ea28079a5313": {
    "name": "棉花田生機園地-木柵指南",
    "district": "文山區",
    "address": "臺北市文山區指南路一段22號",
    "earlyBird": null,
    "lat": 24.9875608,
    "lng": 121.5693727
  },
  "0ab37526-03e6-42ef-a87c-d7043fe08b47": {
    "name": "微風南山店-Stella McCARTNEY Kids",
    "district": "信義區",
    "address": "臺北市信義區松智路17號",
    "earlyBird": null,
    "lat": 25.0343073,
    "lng": 121.5659555
  },
  "0ab3b5be-a56f-4989-9223-5ad69e52ef80": {
    "name": "微風三總-初牧",
    "district": "內湖區",
    "address": "臺北市內湖區成功路2段325號",
    "earlyBird": null,
    "lat": 25.0717029,
    "lng": 121.5900721
  },
  "0ab88765-f602-46b3-be4c-f04c07768331": {
    "name": "龍涎居好湯 仁愛復興店",
    "district": "大安區",
    "address": "臺北市大安區仁慈里復興南路１段２５３巷６號１樓",
    "earlyBird": false,
    "lat": 25.0367314,
    "lng": 121.5440867
  },
  "0aba6c2a-3c47-4335-9778-c5b94b49c55f": {
    "name": "遠東SOGO忠孝館-WHIPLE",
    "district": "大安區",
    "address": "臺北市大安區忠孝東路4段45號3F",
    "earlyBird": null,
    "lat": 25.0421272,
    "lng": 121.5449393
  },
  "0abee0f8-41e9-4521-80b5-cfd71102e8b0": {
    "name": "New Balance　GREY 101",
    "district": "信義區",
    "address": "臺北市信義區市府路45號B1/F",
    "earlyBird": false,
    "lat": 25.0341222,
    "lng": 121.5640212
  },
  "0ac9b70a-49d1-4a89-9c5a-a4b45323c459": {
    "name": "京站-levis",
    "district": "大同區",
    "address": "台北市大同區承德路一段一號",
    "earlyBird": null,
    "lat": 25.0504459,
    "lng": 121.5170168
  },
  "0acf7bda-323a-41aa-bf35-30c909303fbd": {
    "name": "微風松高-ZAN ZAN",
    "district": "信義區",
    "address": "臺北市信義區松高路16號1-4樓及地下1-5樓",
    "earlyBird": null,
    "lat": 25.0387076,
    "lng": 121.56729
  },
  "0acfad9e-bd39-4961-83d0-07d14ae994af": {
    "name": "遠東SOGO忠孝館-HUGO BOSS",
    "district": "大安區",
    "address": "臺北市大安區忠孝東路4段45號7F",
    "earlyBird": null,
    "lat": 25.0421272,
    "lng": 121.5449393
  },
  "0ad659ff-bfb0-4b13-919f-c76445e843e7": {
    "name": "屈臣氏科技店",
    "district": "大安區",
    "address": "臺北市大安區台北市大安區復興南路二段205號",
    "earlyBird": null,
    "lat": 25.0262944,
    "lng": 121.5435986
  },
  "0ad7ff3a-9088-433c-b0ad-1b01cf2ce41f": {
    "name": "遠東SOGO忠孝館-芳美 SAN-X",
    "district": "大安區",
    "address": "臺北市大安區忠孝東路4段45號11F",
    "earlyBird": null,
    "lat": 25.0421272,
    "lng": 121.5449393
  },
  "0ad9b51c-3e46-4c30-91ae-46771ed31d54": {
    "name": "微風信義店-Polar Light",
    "district": "信義區",
    "address": "臺北市信義區忠孝東路5段68號1-4樓、44至46樓及地下2樓",
    "earlyBird": null,
    "lat": 25.0405444,
    "lng": 121.5667909
  },
  "0ad9e817-236e-48a5-9b7b-a8b5fa4db4f6": {
    "name": "微風信義店-ED HARDY ",
    "district": "信義區",
    "address": "臺北市信義區忠孝東路5段68號1-4樓、44至46樓及地下2樓",
    "earlyBird": null,
    "lat": 25.0405444,
    "lng": 121.5667909
  },
  "0add33b4-94e5-4273-b61b-eb0a56cd5d85": {
    "name": "TAIPEI101–KADO KADO-T0166",
    "district": "信義區",
    "address": "臺北市信義區市府路45號",
    "earlyBird": null,
    "lat": 25.0341222,
    "lng": 121.5640212
  },
  "0adee55c-da2f-4134-afd1-400136effb6e": {
    "name": "遠東SOGO敦化館-極源品",
    "district": "大安區",
    "address": "臺北市大安區敦化南路1段246號B2F",
    "earlyBird": null,
    "lat": 25.0401203,
    "lng": 121.5481393
  },
  "0ae2af18-c91c-4961-8c3b-edd529cbb2ca": {
    "name": "玉和皮鞋有限公司",
    "district": "大安區",
    "address": "臺北市大安區敦化南路２段１號１樓",
    "earlyBird": false,
    "lat": 25.0330462,
    "lng": 121.5491689
  },
  "0aee73ee-bf24-408f-858b-04c92a295d26": {
    "name": "VEGE CREEK 蔬河",
    "district": "大安區",
    "address": "臺北市大安區華聲里延吉街１２９巷２號",
    "earlyBird": true,
    "lat": 25.0429395,
    "lng": 121.5550195
  },
  "0aee81f3-d325-4a1b-a47a-62f3e3d9dbf6": {
    "name": "微風廣場店-德逸有機生活館",
    "district": "松山區",
    "address": "臺北市松山區復興南路一段39號",
    "earlyBird": null,
    "lat": 25.0461572,
    "lng": 121.5448303
  },
  "0af6fdd2-cff3-45a8-8181-d807fb32cfed": {
    "name": "遠百台北寶慶店-恆隆行電暖器",
    "district": "中正區",
    "address": "臺北市中正區寶慶路32號8F ",
    "earlyBird": null,
    "lat": 25.0414461,
    "lng": 121.5090757
  },
  "0b08b2f2-b3ad-4a7f-8a4f-1e315967df91": {
    "name": "遠東SOGO忠孝館-La Vie Aisee",
    "district": "大安區",
    "address": "臺北市大安區忠孝東路4段45號6F",
    "earlyBird": null,
    "lat": 25.0421272,
    "lng": 121.5449393
  },
  "0b0935bb-7938-4300-a623-c865ca84a499": {
    "name": "時代百貨-MAC-1201",
    "district": "信義區",
    "address": "臺北市信義區忠孝東路5段8號1樓",
    "earlyBird": null,
    "lat": 25.0406564,
    "lng": 121.5654313
  },
  "0b09b610-cc47-416a-87d0-94d3e0fe7571": {
    "name": "大葉高島屋-法蝶",
    "district": "士林區",
    "address": "臺北市士林區忠誠路二段55號",
    "earlyBird": null,
    "lat": 25.1118523,
    "lng": 121.5314695
  },
  "0b10211b-24a6-45b3-8eb3-feda39e6d0a6": {
    "name": "遠東SOGO敦化館1F-綜合收銀台",
    "district": "大安區",
    "address": "臺北市大安區敦化南路1段246號1F",
    "earlyBird": null,
    "lat": 25.0401203,
    "lng": 121.5481393
  },
  "0b12a7ce-9552-4c3a-ab2f-9cebd98552fc": {
    "name": "遠企購物中心-FCUK",
    "district": "大安區",
    "address": "臺北市大安區敦化南路2段203號B1樓",
    "earlyBird": null,
    "lat": 25.0264181,
    "lng": 121.5494531
  },
  "0b192407-6954-4d05-849a-f64ec8ad2771": {
    "name": "時代百貨-Sloggi-4425",
    "district": "信義區",
    "address": "臺北市信義區忠孝東路5段8號4樓",
    "earlyBird": null,
    "lat": 25.040846,
    "lng": 121.565396
  },
  "0b21f1d8-a2c4-413d-98d1-a6addf84ad25": {
    "name": "ATT e Life 大直店_楽玩多",
    "district": "中山區",
    "address": "臺北市中山區敬業三路123號1樓",
    "earlyBird": null,
    "lat": 25.0813382,
    "lng": 121.5557428
  },
  "0b229c9d-0437-41a6-a597-dc046ee6d129": {
    "name": "微風台北車站-摩斯漢堡",
    "district": "中正區",
    "address": "臺北市中正區北平西路3號2樓、1樓及地下1樓",
    "earlyBird": null,
    "lat": 25.0475172,
    "lng": 121.5159125
  },
  "0b2b2c93-1afe-40e9-a954-d7ce77f7318d": {
    "name": "士林夜市-一家食堂",
    "district": "士林區",
    "address": "臺北市士林區仁勇里大東路６２號",
    "earlyBird": true,
    "lat": 25.089898,
    "lng": 121.525534
  },
  "0b319e25-c0c7-4573-91de-5a367b4567b2": {
    "name": "時代百貨-Jack Wolfskin-5403",
    "district": "信義區",
    "address": "臺北市信義區忠孝東路5段8號5樓",
    "earlyBird": null,
    "lat": 25.0408461,
    "lng": 121.5653964
  },
  "0b31fe03-b66d-40b8-9192-a6063d0078c4": {
    "name": "Tomod's特美事-信義信安店",
    "district": "信義區",
    "address": "臺北市信義區信安街202號",
    "earlyBird": false,
    "lat": 25.0228026,
    "lng": 121.5547949
  },
  "0b350357-9f36-46f2-b5c9-a1cf5710a304": {
    "name": "遠東SOGO忠孝館-培芝家電",
    "district": "大安區",
    "address": "臺北市大安區忠孝東路4段45號9F",
    "earlyBird": null,
    "lat": 25.0421272,
    "lng": 121.5449393
  },
  "0b416754-7e82-458b-8d68-66d38231405f": {
    "name": "微風南京-貫子",
    "district": "松山區",
    "address": "臺北市松山區南京東路三段337號1至4樓及地下1，2樓",
    "earlyBird": null,
    "lat": 25.0520316,
    "lng": 121.5481058
  },
  "0b431433-1ccb-4860-8a7d-15c32e264754": {
    "name": "遠東SOGO天母館-摩洛索夫",
    "district": "士林區",
    "address": "臺北市士林區中山北路6段77號B1",
    "earlyBird": null,
    "lat": 25.105306,
    "lng": 121.5245943
  },
  "0b4ce3bc-ebb4-41d1-aacf-a44c06d20641": {
    "name": "京站-美食街綜合櫃0437",
    "district": "大同區",
    "address": "臺北市大同區承德路一段一號",
    "earlyBird": null,
    "lat": 25.0504459,
    "lng": 121.5170168
  },
  "0b4fa65d-1bc8-46bb-8ddf-d2d43446699a": {
    "name": "維康醫療用品",
    "district": "大安區",
    "address": "臺北市大安區延吉街239號4樓",
    "earlyBird": false,
    "lat": 25.0362998,
    "lng": 121.5557133
  },
  "0b512af8-d519-4126-9499-10b5aa92110d": {
    "name": "台灣薩莉亞餐飲股份有限公司天母分公司",
    "district": "士林區",
    "address": "臺北市士林區天玉里天母西路１３巷６號１樓",
    "earlyBird": false,
    "lat": 25.1187481,
    "lng": 121.5284664
  },
  "0b536b5d-2b30-48c8-b258-c90f8a0f12ca": {
    "name": "新光三越A9-PANASONIC 按摩椅",
    "district": "信義區",
    "address": "臺北市信義區西村里松壽路９號",
    "earlyBird": null,
    "lat": 25.0363104,
    "lng": 121.5668588
  },
  "0b551d9c-3943-4f1f-8d3c-e07ecbd3de15": {
    "name": "京站-KIEHL'S",
    "district": "大同區",
    "address": "台北市大同區承德路一段一號",
    "earlyBird": null,
    "lat": 25.0504459,
    "lng": 121.5170168
  },
  "0b599784-1513-4ee4-b347-5760f0979ab8": {
    "name": "故宮晶華股份有限公司",
    "district": "士林區",
    "address": "臺北市士林區至善路二段221號",
    "earlyBird": true,
    "lat": 25.1001805,
    "lng": 121.5488112
  },
  "0b62edd8-bbcd-40da-9c0c-776fe62d5fd6": {
    "name": "京站-Elepgant cuppa",
    "district": "大同區",
    "address": "臺北市大同區承德路一段1號",
    "earlyBird": null,
    "lat": 25.0492915,
    "lng": 121.5172486
  },
  "0b670752-8ace-447d-ad20-40b29eb10fb3": {
    "name": "遠東SOGO天母館-LA VIE AISEE",
    "district": "士林區",
    "address": "臺北市士林區中山北路6段77號(3F)",
    "earlyBird": null,
    "lat": 25.105306,
    "lng": 121.5245943
  },